time,.header.seq,.header.stamp.secs,.header.stamp.nsecs,.header.frame_id,.status.status,.status.service,.latitude,.longitude,.altitude,.position_covariance,.position_covariance_type
2019/04/28/14:58:03.379393,5344,1556456281,495037,gps,0,5,22.3010095,114.1791234,21.071,"(23.882768999999996, 0.0, 0.0, 0.0, 23.882768999999996, 0.0, 0.0, 0.0, 199.54387599999998)",2
2019/04/28/14:58:04.373302,5345,1556456282,494666,gps,0,5,22.3010042,114.1791205,18.966,"(24.344356, 0.0, 0.0, 0.0, 24.344356, 0.0, 0.0, 0.0, 203.66144100000002)",2
2019/04/28/14:58:05.387784,5346,1556456283,494297,gps,0,5,22.3009976,114.1791177,16.134,"(24.780483999999998, 0.0, 0.0, 0.0, 24.780483999999998, 0.0, 0.0, 0.0, 207.388801)",2
2019/04/28/14:58:06.373163,5347,1556456284,493927,gps,0,5,22.3009937,114.1791145,14.05,"(25.190361000000003, 0.0, 0.0, 0.0, 25.190361000000003, 0.0, 0.0, 0.0, 210.337009)",2
2019/04/28/14:58:07.394658,5348,1556456285,493556,gps,0,5,22.3009897,114.1791118,11.928,"(25.623844000000002, 0.0, 0.0, 0.0, 25.623844000000002, 0.0, 0.0, 0.0, 212.72222500000004)",2
2019/04/28/14:58:08.426433,5349,1556456286,493185,gps,0,5,22.3009859,114.179109,9.907,"(25.969216, 0.0, 0.0, 0.0, 25.969216, 0.0, 0.0, 0.0, 215.032896)",2
2019/04/28/14:58:09.372159,5350,1556456287,492816,gps,0,5,22.3009826,114.1791049,7.63,"(26.173455999999998, 0.0, 0.0, 0.0, 26.173455999999998, 0.0, 0.0, 0.0, 216.266436)",2
2019/04/28/14:58:10.380169,5351,1556456288,492445,gps,0,5,22.3009754,114.1791043,5.969,"(26.399044, 0.0, 0.0, 0.0, 26.399044, 0.0, 0.0, 0.0, 218.359729)",2
2019/04/28/14:58:11.387415,5352,1556456289,492074,gps,0,5,22.3009692,114.1791023,3.653,"(26.388768999999996, 0.0, 0.0, 0.0, 26.388768999999996, 0.0, 0.0, 0.0, 218.300625)",2
2019/04/28/14:58:12.403662,5353,1556456290,491703,gps,0,5,22.3009653,114.1790987,1.756,"(26.183689, 0.0, 0.0, 0.0, 26.183689, 0.0, 0.0, 0.0, 216.94344099999998)",2
2019/04/28/14:58:13.375262,5354,1556456291,491332,gps,0,5,22.3009618,114.1790951,-0.086,"(26.020201, 0.0, 0.0, 0.0, 26.020201, 0.0, 0.0, 0.0, 215.766721)",2
2019/04/28/14:58:14.376394,5355,1556456292,490960,gps,0,5,22.3009582,114.1790921,-1.503,"(25.8064, 0.0, 0.0, 0.0, 25.8064, 0.0, 0.0, 0.0, 214.798336)",2
2019/04/28/14:58:15.382166,5356,1556456293,490587,gps,0,5,22.3009545,114.1790887,-2.732,"(25.553024999999998, 0.0, 0.0, 0.0, 25.553024999999998, 0.0, 0.0, 0.0, 212.63472400000003)",2
2019/04/28/14:58:16.382050,5357,1556456294,490215,gps,0,5,22.3009514,114.1790854,-4.38,"(25.381444000000002, 0.0, 0.0, 0.0, 25.381444000000002, 0.0, 0.0, 0.0, 211.091841)",2
2019/04/28/14:58:17.387253,5358,1556456295,489813,gps,0,5,22.3009763,114.1790792,6.636,"(30.824703999999997, 0.0, 0.0, 0.0, 30.824703999999997, 0.0, 0.0, 0.0, 245.70562500000003)",2
2019/04/28/14:58:18.390408,5359,1556456296,489417,gps,0,5,22.3009972,114.1790731,15.521,"(34.398225000000004, 0.0, 0.0, 0.0, 34.398225000000004, 0.0, 0.0, 0.0, 266.66889999999995)",2
2019/04/28/14:58:19.385292,5360,1556456297,489025,gps,0,5,22.3010139,114.1790669,22.525,"(35.85614400000001, 0.0, 0.0, 0.0, 35.85614400000001, 0.0, 0.0, 0.0, 271.557441)",2
2019/04/28/14:58:20.392286,5361,1556456298,488634,gps,0,5,22.3010264,114.1790636,28.952,"(36.8449, 0.0, 0.0, 0.0, 36.8449, 0.0, 0.0, 0.0, 272.67916900000006)",2
2019/04/28/14:58:21.381200,5362,1556456299,488246,gps,0,5,22.3010382,114.17906,34.324,"(36.385024, 0.0, 0.0, 0.0, 36.385024, 0.0, 0.0, 0.0, 264.0625)",2
2019/04/28/14:58:22.376614,5363,1556456300,487859,gps,0,5,22.3010473,114.1790572,38.969,"(36.240399999999994, 0.0, 0.0, 0.0, 36.240399999999994, 0.0, 0.0, 0.0, 258.21276099999994)",2
2019/04/28/14:58:23.379824,5364,1556456301,487475,gps,0,5,22.3010548,114.1790549,42.761,"(35.724529000000004, 0.0, 0.0, 0.0, 35.724529000000004, 0.0, 0.0, 0.0, 250.62056099999998)",2
2019/04/28/14:58:24.379302,5365,1556456302,487089,gps,0,5,22.3010604,114.1790532,46.765,"(35.331136, 0.0, 0.0, 0.0, 35.331136, 0.0, 0.0, 0.0, 243.640881)",2
2019/04/28/14:58:25.376601,5366,1556456303,486705,gps,0,5,22.3010673,114.1790516,50.23,"(34.550884, 0.0, 0.0, 0.0, 34.550884, 0.0, 0.0, 0.0, 234.48796900000002)",2
2019/04/28/14:58:26.390172,5367,1556456304,486322,gps,0,5,22.301074,114.1790506,53.279,"(33.698024999999994, 0.0, 0.0, 0.0, 33.698024999999994, 0.0, 0.0, 0.0, 226.11136900000002)",2
2019/04/28/14:58:27.379520,5368,1556456305,485939,gps,0,5,22.3010803,114.1790492,56.325,"(33.085504, 0.0, 0.0, 0.0, 33.085504, 0.0, 0.0, 0.0, 219.9289)",2
2019/04/28/14:58:28.406539,5369,1556456306,485558,gps,0,5,22.3010857,114.1790482,58.982,"(32.615521, 0.0, 0.0, 0.0, 32.615521, 0.0, 0.0, 0.0, 214.76902499999997)",2
2019/04/28/14:58:29.383786,5370,1556456307,485177,gps,0,5,22.3010963,114.1790438,61.422,"(32.547025, 0.0, 0.0, 0.0, 32.547025, 0.0, 0.0, 0.0, 210.77232400000003)",2
2019/04/28/14:58:30.379215,5371,1556456308,484806,gps,0,5,22.3010921,114.1790336,59.936,"(29.149201, 0.0, 0.0, 0.0, 29.149201, 0.0, 0.0, 0.0, 194.88160000000002)",2
2019/04/28/14:58:31.385740,5372,1556456309,484435,gps,0,5,22.3010808,114.1790212,57.895,"(29.539224999999995, 0.0, 0.0, 0.0, 29.539224999999995, 0.0, 0.0, 0.0, 206.238321)",2
2019/04/28/14:58:32.412452,5373,1556456310,484067,gps,0,5,22.3010643,114.1790066,55.0,"(28.912128999999997, 0.0, 0.0, 0.0, 28.912128999999997, 0.0, 0.0, 0.0, 210.94657599999996)",2
2019/04/28/14:58:33.377402,5374,1556456311,483687,gps,0,5,22.3010466,114.1789899,56.685,"(30.184036, 0.0, 0.0, 0.0, 30.184036, 0.0, 0.0, 0.0, 227.979801)",2
2019/04/28/14:58:34.387483,5375,1556456312,483340,gps,0,5,22.3010564,114.178972,46.66,"(28.901376000000003, 0.0, 0.0, 0.0, 28.901376000000003, 0.0, 0.0, 0.0, 225.750625)",2
2019/04/28/14:58:35.380620,5376,1556456313,482979,gps,0,5,22.3010475,114.1789486,39.795,"(23.174596, 0.0, 0.0, 0.0, 23.174596, 0.0, 0.0, 0.0, 183.927844)",2
2019/04/28/14:58:36.396899,5377,1556456314,482610,gps,0,5,22.3010335,114.1789441,37.007,"(17.648400999999996, 0.0, 0.0, 0.0, 17.648400999999996, 0.0, 0.0, 0.0, 160.149025)",2
2019/04/28/14:58:37.385635,5378,1556456315,482242,gps,0,5,22.301014,114.1789543,34.607,"(15.405624999999999, 0.0, 0.0, 0.0, 15.405624999999999, 0.0, 0.0, 0.0, 152.127556)",2
2019/04/28/14:58:38.400247,5379,1556456316,481869,gps,0,5,22.3009951,114.1789691,33.56,"(10.582009000000001, 0.0, 0.0, 0.0, 10.582009000000001, 0.0, 0.0, 0.0, 115.06852900000001)",2
2019/04/28/14:58:39.384838,5380,1556456317,481496,gps,0,5,22.3009739,114.1789861,32.95,"(9.960336000000002, 0.0, 0.0, 0.0, 9.960336000000002, 0.0, 0.0, 0.0, 115.26169600000001)",2
2019/04/28/14:58:40.386581,5381,1556456318,481119,gps,0,5,22.3009605,114.1790135,33.928,"(8.773444000000001, 0.0, 0.0, 0.0, 8.773444000000001, 0.0, 0.0, 0.0, 112.296409)",2
2019/04/28/14:58:41.391723,5382,1556456319,480762,gps,0,5,22.3009397,114.179036,27.054,"(8.179599999999999, 0.0, 0.0, 0.0, 8.179599999999999, 0.0, 0.0, 0.0, 107.972881)",2
2019/04/28/14:58:42.374502,5383,1556456320,480398,gps,0,5,22.300915,114.1790456,23.218,"(8.2944, 0.0, 0.0, 0.0, 8.2944, 0.0, 0.0, 0.0, 106.9156)",2
2019/04/28/14:58:43.400463,5384,1556456321,480029,gps,0,5,22.3008858,114.1790656,21.505,"(8.0656, 0.0, 0.0, 0.0, 8.0656, 0.0, 0.0, 0.0, 100.50062500000001)",2
2019/04/28/14:58:44.380536,5385,1556456322,479661,gps,0,5,22.3008505,114.1790958,17.984,"(9.054081, 0.0, 0.0, 0.0, 9.054081, 0.0, 0.0, 0.0, 100.74136900000002)",2
2019/04/28/14:58:45.374188,5386,1556456323,479296,gps,0,5,22.3008158,114.1791248,14.226,"(10.137856000000001, 0.0, 0.0, 0.0, 10.137856000000001, 0.0, 0.0, 0.0, 103.36788899999999)",2
2019/04/28/14:58:46.389917,5387,1556456324,478924,gps,0,5,22.3007829,114.179165,12.638,"(10.118761000000001, 0.0, 0.0, 0.0, 10.118761000000001, 0.0, 0.0, 0.0, 97.06190400000001)",2
2019/04/28/14:58:47.387230,5388,1556456325,478550,gps,0,5,22.3007426,114.1792015,11.57,"(10.601536, 0.0, 0.0, 0.0, 10.601536, 0.0, 0.0, 0.0, 106.17241600000001)",2
2019/04/28/14:58:48.386581,5389,1556456326,478176,gps,0,5,22.3007029,114.1792402,10.561,"(10.608049000000001, 0.0, 0.0, 0.0, 10.608049000000001, 0.0, 0.0, 0.0, 113.039424)",2
2019/04/28/14:58:49.404502,5390,1556456327,477801,gps,0,5,22.3006663,114.1792839,10.044,"(10.995855999999998, 0.0, 0.0, 0.0, 10.995855999999998, 0.0, 0.0, 0.0, 127.91610000000001)",2
2019/04/28/14:58:50.401467,5391,1556456328,477429,gps,0,5,22.3006289,114.1793193,9.069,"(12.823561, 0.0, 0.0, 0.0, 12.823561, 0.0, 0.0, 0.0, 147.015625)",2
2019/04/28/14:58:51.399652,5392,1556456329,477056,gps,0,5,22.300592,114.179353,8.241,"(15.171025, 0.0, 0.0, 0.0, 15.171025, 0.0, 0.0, 0.0, 168.896016)",2
2019/04/28/14:58:52.397498,5393,1556456330,476686,gps,0,5,22.3005554,114.1793829,5.718,"(17.64, 0.0, 0.0, 0.0, 17.64, 0.0, 0.0, 0.0, 199.713424)",2
2019/04/28/14:58:53.394774,5394,1556456331,476315,gps,0,5,22.3005186,114.1794212,3.363,"(21.902399999999997, 0.0, 0.0, 0.0, 21.902399999999997, 0.0, 0.0, 0.0, 229.249881)",2
2019/04/28/14:58:54.404283,5395,1556456332,475937,gps,0,5,22.3004746,114.1794656,4.102,"(22.259524, 0.0, 0.0, 0.0, 22.259524, 0.0, 0.0, 0.0, 222.815329)",2
2019/04/28/14:58:55.405580,5396,1556456333,475545,gps,0,5,22.3004281,114.1795052,9.685,"(22.992024999999998, 0.0, 0.0, 0.0, 22.992024999999998, 0.0, 0.0, 0.0, 226.622916)",2
2019/04/28/14:58:56.406644,5397,1556456334,475170,gps,0,5,22.300384,114.179553,9.411,"(24.443136, 0.0, 0.0, 0.0, 24.443136, 0.0, 0.0, 0.0, 240.62214400000002)",2
2019/04/28/14:58:57.404158,5398,1556456335,474783,gps,0,5,22.3003522,114.179615,12.476,"(28.121809, 0.0, 0.0, 0.0, 28.121809, 0.0, 0.0, 0.0, 264.355081)",2
2019/04/28/14:58:58.394017,5399,1556456336,474404,gps,0,5,22.300312,114.1796691,13.029,"(30.858024999999998, 0.0, 0.0, 0.0, 30.858024999999998, 0.0, 0.0, 0.0, 290.63430399999993)",2
2019/04/28/14:58:59.390682,5400,1556456337,474034,gps,0,5,22.3002626,114.1797029,11.943,"(27.9841, 0.0, 0.0, 0.0, 27.9841, 0.0, 0.0, 0.0, 311.769649)",2
2019/04/28/14:59:00.385522,5401,1556456338,473597,gps,0,5,22.3001952,114.179668,36.197,"(40.602384, 0.0, 0.0, 0.0, 40.602384, 0.0, 0.0, 0.0, 500.86439999999993)",2
2019/04/28/14:59:01.402654,5402,1556456339,473201,gps,0,5,22.3001652,114.1797106,43.862,"(41.460721, 0.0, 0.0, 0.0, 41.460721, 0.0, 0.0, 0.0, 524.0894490000001)",2
2019/04/28/14:59:02.419528,5403,1556456340,472818,gps,0,5,22.3001368,114.1797305,46.261,"(37.847104, 0.0, 0.0, 0.0, 37.847104, 0.0, 0.0, 0.0, 474.586225)",2
2019/04/28/14:59:03.462749,5404,1556456341,472483,gps,0,5,22.3001212,114.1797662,28.859,"(33.849123999999996, 0.0, 0.0, 0.0, 33.849123999999996, 0.0, 0.0, 0.0, 395.055376)",2
2019/04/28/14:59:04.402387,5405,1556456342,472103,gps,0,5,22.3001091,114.1797677,30.201,"(27.112848999999997, 0.0, 0.0, 0.0, 27.112848999999997, 0.0, 0.0, 0.0, 310.07688100000007)",2
2019/04/28/14:59:05.394488,5406,1556456343,471714,gps,0,5,22.3001142,114.1797787,34.683,"(21.958596, 0.0, 0.0, 0.0, 21.958596, 0.0, 0.0, 0.0, 266.897569)",2
2019/04/28/14:59:06.387401,5407,1556456344,471327,gps,0,5,22.3001183,114.1797907,38.131,"(19.236996, 0.0, 0.0, 0.0, 19.236996, 0.0, 0.0, 0.0, 244.234384)",2
2019/04/28/14:59:07.430621,5408,1556456345,470938,gps,0,5,22.3001209,114.1797997,42.058,"(18.610596, 0.0, 0.0, 0.0, 18.610596, 0.0, 0.0, 0.0, 244.640881)",2
2019/04/28/14:59:08.407723,5409,1556456346,470553,gps,0,5,22.3001218,114.1798083,44.714,"(18.412681000000003, 0.0, 0.0, 0.0, 18.412681000000003, 0.0, 0.0, 0.0, 247.81056400000003)",2
2019/04/28/14:59:09.390947,5410,1556456347,470167,gps,0,5,22.3001223,114.1798159,47.665,"(18.412681000000003, 0.0, 0.0, 0.0, 18.412681000000003, 0.0, 0.0, 0.0, 253.60562500000003)",2
2019/04/28/14:59:10.392030,5411,1556456348,469782,gps,0,5,22.3001221,114.1798211,50.411,"(18.861649, 0.0, 0.0, 0.0, 18.861649, 0.0, 0.0, 0.0, 262.083721)",2
2019/04/28/14:59:11.407483,5412,1556456349,469401,gps,0,5,22.3001203,114.1798236,51.286,"(17.825284000000003, 0.0, 0.0, 0.0, 17.825284000000003, 0.0, 0.0, 0.0, 248.188516)",2
2019/04/28/14:59:12.387634,5413,1556456350,469022,gps,0,5,22.3001184,114.179826,51.501,"(17.189315999999998, 0.0, 0.0, 0.0, 17.189315999999998, 0.0, 0.0, 0.0, 237.93062500000002)",2
2019/04/28/14:59:13.434014,5414,1556456351,468643,gps,0,5,22.300117,114.179828,51.723,"(16.200625000000002, 0.0, 0.0, 0.0, 16.200625000000002, 0.0, 0.0, 0.0, 221.354884)",2
2019/04/28/14:59:14.390762,5415,1556456352,468261,gps,0,5,22.3001159,114.1798306,53.065,"(16.192576, 0.0, 0.0, 0.0, 16.192576, 0.0, 0.0, 0.0, 217.91664400000002)",2
2019/04/28/14:59:15.395031,5416,1556456353,467880,gps,0,5,22.3001149,114.179833,54.328,"(14.922769, 0.0, 0.0, 0.0, 14.922769, 0.0, 0.0, 0.0, 198.64083599999998)",2
2019/04/28/14:59:16.394974,5417,1556456354,467498,gps,0,5,22.3001137,114.1798357,56.138,"(14.485636, 0.0, 0.0, 0.0, 14.485636, 0.0, 0.0, 0.0, 190.909489)",2
2019/04/28/14:59:17.400993,5418,1556456355,467113,gps,0,5,22.3001134,114.1798414,58.468,"(14.814801000000001, 0.0, 0.0, 0.0, 14.814801000000001, 0.0, 0.0, 0.0, 193.37683600000003)",2
2019/04/28/14:59:18.404135,5419,1556456356,466728,gps,0,5,22.3001133,114.1798463,61.008,"(14.630625000000002, 0.0, 0.0, 0.0, 14.630625000000002, 0.0, 0.0, 0.0, 191.296561)",2
2019/04/28/14:59:19.396602,5420,1556456357,466341,gps,0,5,22.3001141,114.1798545,64.215,"(15.499968999999998, 0.0, 0.0, 0.0, 15.499968999999998, 0.0, 0.0, 0.0, 200.76056100000002)",2
2019/04/28/14:59:20.401684,5421,1556456358,465954,gps,0,5,22.3001143,114.1798608,67.788,"(15.649936, 0.0, 0.0, 0.0, 15.649936, 0.0, 0.0, 0.0, 202.692169)",2
2019/04/28/14:59:21.393904,5422,1556456359,465569,gps,0,5,22.3001135,114.1798652,70.583,"(15.163236000000001, 0.0, 0.0, 0.0, 15.163236000000001, 0.0, 0.0, 0.0, 196.39219599999998)",2
2019/04/28/14:59:22.397503,5423,1556456360,465186,gps,0,5,22.3001138,114.1798698,72.715,"(14.470415999999998, 0.0, 0.0, 0.0, 14.470415999999998, 0.0, 0.0, 0.0, 186.21331600000002)",2
2019/04/28/14:59:23.389897,5424,1556456361,464805,gps,0,5,22.3001139,114.1798723,73.816,"(13.256881, 0.0, 0.0, 0.0, 13.256881, 0.0, 0.0, 0.0, 168.7401)",2
2019/04/28/14:59:24.393015,5425,1556456362,464425,gps,0,5,22.3001129,114.179873,74.983,"(12.299049, 0.0, 0.0, 0.0, 12.299049, 0.0, 0.0, 0.0, 153.636025)",2
2019/04/28/14:59:25.402736,5426,1556456363,464046,gps,0,5,22.3001119,114.1798734,75.494,"(11.135569000000002, 0.0, 0.0, 0.0, 11.135569000000002, 0.0, 0.0, 0.0, 136.960209)",2
2019/04/28/14:59:26.407028,5427,1556456364,463667,gps,0,5,22.30011,114.1798734,76.273,"(11.269449000000002, 0.0, 0.0, 0.0, 11.269449000000002, 0.0, 0.0, 0.0, 136.399041)",2
2019/04/28/14:59:27.397789,5428,1556456365,463288,gps,0,5,22.3001078,114.1798723,76.781,"(11.682724, 0.0, 0.0, 0.0, 11.682724, 0.0, 0.0, 0.0, 139.783329)",2
2019/04/28/14:59:28.400967,5429,1556456366,462913,gps,0,5,22.3001059,114.1798725,76.127,"(12.082576, 0.0, 0.0, 0.0, 12.082576, 0.0, 0.0, 0.0, 142.65913600000002)",2
2019/04/28/14:59:29.406527,5430,1556456367,462533,gps,0,5,22.3001056,114.1798891,77.086,"(11.587216, 0.0, 0.0, 0.0, 11.587216, 0.0, 0.0, 0.0, 137.921536)",2
2019/04/28/14:59:30.399828,5431,1556456368,462150,gps,0,5,22.3001076,114.1799037,80.469,"(13.446888999999999, 0.0, 0.0, 0.0, 13.446888999999999, 0.0, 0.0, 0.0, 166.15210000000002)",2
2019/04/28/14:59:31.405774,5432,1556456369,461780,gps,0,5,22.3001025,114.1799114,77.9,"(11.675888999999998, 0.0, 0.0, 0.0, 11.675888999999998, 0.0, 0.0, 0.0, 151.609969)",2
2019/04/28/14:59:32.412209,5433,1556456370,461405,gps,0,5,22.3000991,114.1799218,77.453,"(10.889999999999999, 0.0, 0.0, 0.0, 10.889999999999999, 0.0, 0.0, 0.0, 141.99105600000001)",2
2019/04/28/14:59:33.406986,5434,1556456371,461026,gps,0,5,22.3000845,114.1799211,78.624,"(11.792356000000002, 0.0, 0.0, 0.0, 11.792356000000002, 0.0, 0.0, 0.0, 159.239161)",2
2019/04/28/14:59:34.428915,5435,1556456372,460664,gps,0,5,22.3000524,114.1799278,71.115,"(13.010449000000001, 0.0, 0.0, 0.0, 13.010449000000001, 0.0, 0.0, 0.0, 164.99402500000002)",2
2019/04/28/14:59:35.421095,5436,1556456373,460299,gps,0,5,22.3000036,114.1799261,64.426,"(14.197823999999999, 0.0, 0.0, 0.0, 14.197823999999999, 0.0, 0.0, 0.0, 173.554276)",2
2019/04/28/14:59:36.405252,5437,1556456374,459919,gps,0,5,22.2999567,114.179913,64.761,"(13.162384000000001, 0.0, 0.0, 0.0, 13.162384000000001, 0.0, 0.0, 0.0, 158.835609)",2
2019/04/28/14:59:37.420909,5438,1556456375,459539,gps,0,5,22.2999212,114.1798816,65.767,"(10.876804, 0.0, 0.0, 0.0, 10.876804, 0.0, 0.0, 0.0, 132.687361)",2
2019/04/28/14:59:38.419656,5439,1556456376,459155,gps,0,5,22.2998923,114.1798517,68.236,"(8.105409, 0.0, 0.0, 0.0, 8.105409, 0.0, 0.0, 0.0, 96.58958399999999)",2
2019/04/28/14:59:39.414788,5440,1556456377,458771,gps,0,5,22.2998605,114.1798117,70.703,"(7.177040999999999, 0.0, 0.0, 0.0, 7.177040999999999, 0.0, 0.0, 0.0, 81.3604)",2
2019/04/28/14:59:40.402999,5441,1556456378,458380,gps,0,5,22.2998297,114.1797626,75.464,"(9.060099999999998, 0.0, 0.0, 0.0, 9.060099999999998, 0.0, 0.0, 0.0, 89.26470400000001)",2
2019/04/28/14:59:41.407876,5442,1556456379,457994,gps,0,5,22.2997982,114.179707,77.881,"(11.002489, 0.0, 0.0, 0.0, 11.002489, 0.0, 0.0, 0.0, 100.641024)",2
2019/04/28/14:59:42.393795,5443,1556456380,457609,gps,0,5,22.2997611,114.1796733,81.238,"(12.453840999999999, 0.0, 0.0, 0.0, 12.453840999999999, 0.0, 0.0, 0.0, 114.46860099999999)",2
2019/04/28/14:59:43.404660,5444,1556456381,457224,gps,0,5,22.2997218,114.1796314,84.711,"(13.830960999999999, 0.0, 0.0, 0.0, 13.830960999999999, 0.0, 0.0, 0.0, 132.227001)",2
2019/04/28/14:59:44.399569,5445,1556456382,456830,gps,0,5,22.2996981,114.1795704,90.834,"(14.485636, 0.0, 0.0, 0.0, 14.485636, 0.0, 0.0, 0.0, 148.376761)",2
2019/04/28/14:59:45.413957,5446,1556456383,456444,gps,0,5,22.2996655,114.1795127,92.915,"(14.424804, 0.0, 0.0, 0.0, 14.424804, 0.0, 0.0, 0.0, 137.170944)",2
2019/04/28/14:59:46.421986,5447,1556456384,456074,gps,0,5,22.2996477,114.1794313,87.987,"(16.573040999999996, 0.0, 0.0, 0.0, 16.573040999999996, 0.0, 0.0, 0.0, 160.376896)",2
2019/04/28/14:59:47.409868,5448,1556456385,455705,gps,0,5,22.29962,114.1793666,84.15,"(15.745023999999999, 0.0, 0.0, 0.0, 15.745023999999999, 0.0, 0.0, 0.0, 155.87522499999997)",2
2019/04/28/14:59:48.422089,5449,1556456386,455301,gps,0,5,22.2995891,114.179308,94.14,"(16.378209, 0.0, 0.0, 0.0, 16.378209, 0.0, 0.0, 0.0, 161.976529)",2
2019/04/28/14:59:49.415228,5450,1556456387,454935,gps,0,5,22.299568,114.1792687,90.926,"(19.971961000000004, 0.0, 0.0, 0.0, 19.971961000000004, 0.0, 0.0, 0.0, 198.41539600000002)",2
2019/04/28/14:59:50.416758,5451,1556456388,454607,gps,0,5,22.2995264,114.1792026,71.199,"(20.884900000000002, 0.0, 0.0, 0.0, 20.884900000000002, 0.0, 0.0, 0.0, 192.82099599999998)",2
2019/04/28/14:59:51.412073,5452,1556456389,454252,gps,0,5,22.2994607,114.1791412,60.971,"(21.669025, 0.0, 0.0, 0.0, 21.669025, 0.0, 0.0, 0.0, 190.329616)",2
2019/04/28/14:59:52.421654,5453,1556456390,453873,gps,0,5,22.2993918,114.1791,62.035,"(22.924944000000004, 0.0, 0.0, 0.0, 22.924944000000004, 0.0, 0.0, 0.0, 182.87152899999998)",2
2019/04/28/14:59:53.404575,5454,1556456391,453492,gps,0,5,22.2993306,114.1790548,63.469,"(22.963264, 0.0, 0.0, 0.0, 22.963264, 0.0, 0.0, 0.0, 177.555625)",2
2019/04/28/14:59:54.414172,5455,1556456392,453118,gps,0,5,22.2992826,114.1789956,61.934,"(20.894040999999998, 0.0, 0.0, 0.0, 20.894040999999998, 0.0, 0.0, 0.0, 159.21392400000002)",2
2019/04/28/14:59:55.411771,5456,1556456393,452759,gps,0,5,22.2992488,114.1789214,51.652,"(19.864849, 0.0, 0.0, 0.0, 19.864849, 0.0, 0.0, 0.0, 147.18542399999998)",2
2019/04/28/14:59:56.417145,5457,1556456394,452376,gps,0,5,22.2992021,114.1788777,52.929,"(17.089956000000004, 0.0, 0.0, 0.0, 17.089956000000004, 0.0, 0.0, 0.0, 127.80302499999999)",2
2019/04/28/14:59:57.401144,5458,1556456395,452035,gps,0,5,22.2991327,114.1788194,36.22,"(13.512976000000002, 0.0, 0.0, 0.0, 13.512976000000002, 0.0, 0.0, 0.0, 111.70376100000001)",2
2019/04/28/14:59:58.394972,5459,1556456396,451684,gps,0,5,22.2990668,114.1787523,23.868,"(9.066121, 0.0, 0.0, 0.0, 9.066121, 0.0, 0.0, 0.0, 87.01158399999998)",2
2019/04/28/14:59:59.395154,5460,1556456397,451324,gps,0,5,22.2990153,114.1786874,16.2,"(6.170256, 0.0, 0.0, 0.0, 6.170256, 0.0, 0.0, 0.0, 66.797929)",2
2019/04/28/15:00:00.397153,5461,1556456398,450954,gps,0,5,22.2989609,114.1786249,12.193,"(4.108729, 0.0, 0.0, 0.0, 4.108729, 0.0, 0.0, 0.0, 47.375689)",2
2019/04/28/15:00:01.414287,5462,1556456399,450578,gps,0,5,22.2989112,114.1785649,10.522,"(3.4151040000000004, 0.0, 0.0, 0.0, 3.4151040000000004, 0.0, 0.0, 0.0, 40.3225)",2
2019/04/28/15:00:02.401913,5463,1556456400,450202,gps,0,5,22.2988661,114.1785073,9.534,"(3.1116960000000002, 0.0, 0.0, 0.0, 3.1116960000000002, 0.0, 0.0, 0.0, 36.192256)",2
2019/04/28/15:00:03.400008,5464,1556456401,449809,gps,0,5,22.2988183,114.1784626,14.62,"(3.553225, 0.0, 0.0, 0.0, 3.553225, 0.0, 0.0, 0.0, 43.191184)",2
2019/04/28/15:00:04.400047,5465,1556456402,449427,gps,0,5,22.2987726,114.178414,16.184,"(2.8324890000000003, 0.0, 0.0, 0.0, 2.8324890000000003, 0.0, 0.0, 0.0, 37.834801)",2
2019/04/28/15:00:05.390747,5466,1556456403,449044,gps,0,5,22.2987327,114.1783647,17.815,"(3.924361, 0.0, 0.0, 0.0, 3.924361, 0.0, 0.0, 0.0, 50.21139600000001)",2
2019/04/28/15:00:06.386356,5467,1556456404,448665,gps,0,5,22.2986903,114.1783168,18.18,"(3.448449, 0.0, 0.0, 0.0, 3.448449, 0.0, 0.0, 0.0, 41.088100000000004)",2
2019/04/28/15:00:07.384917,5468,1556456405,448289,gps,0,5,22.2986455,114.1782671,17.153,"(4.368099999999999, 0.0, 0.0, 0.0, 4.368099999999999, 0.0, 0.0, 0.0, 39.11251599999999)",2
2019/04/28/15:00:08.403289,5469,1556456406,447913,gps,0,5,22.2986042,114.1782129,15.733,"(6.365529, 0.0, 0.0, 0.0, 6.365529, 0.0, 0.0, 0.0, 43.03359999999999)",2
2019/04/28/15:00:09.392503,5470,1556456407,447540,gps,0,5,22.2985605,114.1781607,13.805,"(6.9484960000000004, 0.0, 0.0, 0.0, 6.9484960000000004, 0.0, 0.0, 0.0, 40.436881)",2
2019/04/28/15:00:10.402897,5471,1556456408,447163,gps,0,5,22.2985216,114.1781035,12.919,"(6.4262250000000005, 0.0, 0.0, 0.0, 6.4262250000000005, 0.0, 0.0, 0.0, 35.462025000000004)",2
2019/04/28/15:00:11.414872,5472,1556456409,446783,gps,0,5,22.2984642,114.1780618,13.711,"(7.579009000000001, 0.0, 0.0, 0.0, 7.579009000000001, 0.0, 0.0, 0.0, 40.8321)",2
2019/04/28/15:00:12.408256,5473,1556456410,446405,gps,0,5,22.2984034,114.1780229,13.986,"(7.573503999999999, 0.0, 0.0, 0.0, 7.573503999999999, 0.0, 0.0, 0.0, 40.908816)",2
2019/04/28/15:00:13.418136,5474,1556456411,446020,gps,0,5,22.2983434,114.1779822,16.288,"(10.889999999999999, 0.0, 0.0, 0.0, 10.889999999999999, 0.0, 0.0, 0.0, 56.295009)",2
2019/04/28/15:00:14.411987,5475,1556456412,445644,gps,0,5,22.2982927,114.1779263,15.356,"(9.828224999999998, 0.0, 0.0, 0.0, 9.828224999999998, 0.0, 0.0, 0.0, 48.8601)",2
2019/04/28/15:00:15.398128,5476,1556456413,445252,gps,0,5,22.2982567,114.1778669,20.112,"(10.510564, 0.0, 0.0, 0.0, 10.510564, 0.0, 0.0, 0.0, 49.730703999999996)",2
2019/04/28/15:00:16.393402,5477,1556456414,444849,gps,0,5,22.298247,114.1778081,29.018,"(11.553201, 0.0, 0.0, 0.0, 11.553201, 0.0, 0.0, 0.0, 48.024899999999995)",2
2019/04/28/15:00:17.405183,5478,1556456415,444461,gps,0,5,22.2982254,114.1777538,33.277,"(14.348943999999998, 0.0, 0.0, 0.0, 14.348943999999998, 0.0, 0.0, 0.0, 48.79022500000001)",2
2019/04/28/15:00:18.398172,5479,1556456416,444079,gps,0,5,22.2981981,114.1777028,35.42,"(16.900320999999998, 0.0, 0.0, 0.0, 16.900320999999998, 0.0, 0.0, 0.0, 59.4441)",2
2019/04/28/15:00:19.387208,5480,1556456417,443687,gps,0,5,22.2981938,114.1776552,40.856,"(19.439280999999998, 0.0, 0.0, 0.0, 19.439280999999998, 0.0, 0.0, 0.0, 72.23300100000002)",2
2019/04/28/15:00:20.401184,5481,1556456418,443303,gps,0,5,22.29819,114.1776051,43.25,"(25.240576, 0.0, 0.0, 0.0, 25.240576, 0.0, 0.0, 0.0, 105.41128899999998)",2
2019/04/28/15:00:21.391015,5482,1556456419,442912,gps,0,5,22.2981805,114.177554,47.745,"(32.615521, 0.0, 0.0, 0.0, 32.615521, 0.0, 0.0, 0.0, 140.8969)",2
2019/04/28/15:00:22.390236,5483,1556456420,442524,gps,0,5,22.2981488,114.1775078,51.033,"(39.702601, 0.0, 0.0, 0.0, 39.702601, 0.0, 0.0, 0.0, 171.452836)",2
2019/04/28/15:00:23.430247,5484,1556456421,442134,gps,0,5,22.2981027,114.1774586,54.569,"(47.293129, 0.0, 0.0, 0.0, 47.293129, 0.0, 0.0, 0.0, 208.71580899999998)",2
2019/04/28/15:00:24.381583,5485,1556456422,441759,gps,0,5,22.2980544,114.1774117,53.318,"(50.126400000000004, 0.0, 0.0, 0.0, 50.126400000000004, 0.0, 0.0, 0.0, 242.051364)",2
2019/04/28/15:00:25.389111,5486,1556456423,441383,gps,0,5,22.2980098,114.1773606,52.021,"(50.069776, 0.0, 0.0, 0.0, 50.069776, 0.0, 0.0, 0.0, 268.00964099999993)",2
2019/04/28/15:00:26.412249,5487,1556456424,441023,gps,0,5,22.2979349,114.1773229,44.042,"(41.589600999999995, 0.0, 0.0, 0.0, 41.589600999999995, 0.0, 0.0, 0.0, 241.615936)",2
2019/04/28/15:00:27.392929,5488,1556456425,440658,gps,0,5,22.2978831,114.1772681,38.277,"(36.820623999999995, 0.0, 0.0, 0.0, 36.820623999999995, 0.0, 0.0, 0.0, 214.44673600000002)",2
2019/04/28/15:00:28.407995,5489,1556456426,440289,gps,0,5,22.2978321,114.1772064,33.891,"(32.913169, 0.0, 0.0, 0.0, 32.913169, 0.0, 0.0, 0.0, 192.848769)",2
2019/04/28/15:00:29.387609,5490,1556456427,439914,gps,0,5,22.2977873,114.1771527,32.52,"(33.605208999999995, 0.0, 0.0, 0.0, 33.605208999999995, 0.0, 0.0, 0.0, 195.41244099999997)",2
2019/04/28/15:00:30.398178,5491,1556456428,439546,gps,0,5,22.2977443,114.1771175,28.576,"(36.614601, 0.0, 0.0, 0.0, 36.614601, 0.0, 0.0, 0.0, 205.72164899999999)",2
2019/04/28/15:00:31.353029,5492,1556456429,439181,gps,0,5,22.2977094,114.1770828,22.362,"(49.224256, 0.0, 0.0, 0.0, 49.224256, 0.0, 0.0, 0.0, 244.234384)",2
2019/04/28/15:00:32.374171,5493,1556456430,438814,gps,0,5,22.2976613,114.1770365,16.698,"(73.08540099999999, 0.0, 0.0, 0.0, 73.08540099999999, 0.0, 0.0, 0.0, 308.03760099999994)",2
2019/04/28/15:00:33.383596,5494,1556456431,438439,gps,0,5,22.2976121,114.1769873,14.957,"(87.44120100000002, 0.0, 0.0, 0.0, 87.44120100000002, 0.0, 0.0, 0.0, 388.011204)",2
2019/04/28/15:00:34.387483,5495,1556456432,438063,gps,0,5,22.2975555,114.1769234,14.262,"(84.29076099999999, 0.0, 0.0, 0.0, 84.29076099999999, 0.0, 0.0, 0.0, 395.41322500000007)",2
2019/04/28/15:00:35.388104,5496,1556456433,437592,gps,0,5,22.29757,114.1768349,49.759,"(67.0761, 0.0, 0.0, 0.0, 67.0761, 0.0, 0.0, 0.0, 316.092841)",2
2019/04/28/15:00:36.401028,5497,1556456434,437233,gps,0,5,22.2974879,114.1767871,41.528,"(41.912676000000005, 0.0, 0.0, 0.0, 41.912676000000005, 0.0, 0.0, 0.0, 223.562304)",2
2019/04/28/15:00:37.389361,5498,1556456435,436851,gps,0,5,22.297434,114.1767297,41.143,"(28.005263999999997, 0.0, 0.0, 0.0, 28.005263999999997, 0.0, 0.0, 0.0, 180.39176099999997)",2
2019/04/28/15:00:38.392599,5499,1556456436,436468,gps,0,5,22.2973952,114.1766816,42.598,"(25.260675999999997, 0.0, 0.0, 0.0, 25.260675999999997, 0.0, 0.0, 0.0, 173.7124)",2
2019/04/28/15:00:39.418293,5500,1556456437,436094,gps,0,5,22.2973229,114.1766463,38.897,"(21.086463999999996, 0.0, 0.0, 0.0, 21.086463999999996, 0.0, 0.0, 0.0, 165.251025)",2
2019/04/28/15:00:40.388303,5501,1556456438,435709,gps,0,5,22.2972867,114.1765955,41.098,"(20.241000999999997, 0.0, 0.0, 0.0, 20.241000999999997, 0.0, 0.0, 0.0, 170.250304)",2
2019/04/28/15:00:41.395633,5502,1556456439,435320,gps,0,5,22.2972661,114.1765291,45.326,"(19.847025000000002, 0.0, 0.0, 0.0, 19.847025000000002, 0.0, 0.0, 0.0, 171.8721)",2
2019/04/28/15:00:42.400552,5503,1556456440,434938,gps,0,5,22.2972404,114.1764751,46.439,"(19.704721, 0.0, 0.0, 0.0, 19.704721, 0.0, 0.0, 0.0, 170.3025)",2
2019/04/28/15:00:43.388020,5504,1556456441,434555,gps,0,5,22.2972199,114.1764204,47.666,"(20.493729000000002, 0.0, 0.0, 0.0, 20.493729000000002, 0.0, 0.0, 0.0, 177.98228099999997)",2
2019/04/28/15:00:44.380287,5505,1556456442,434180,gps,0,5,22.2971958,114.1763676,46.083,"(19.855936000000003, 0.0, 0.0, 0.0, 19.855936000000003, 0.0, 0.0, 0.0, 182.142016)",2
2019/04/28/15:00:45.381579,5506,1556456443,433792,gps,0,5,22.2971867,114.17631,49.47,"(15.139881, 0.0, 0.0, 0.0, 15.139881, 0.0, 0.0, 0.0, 178.2225)",2
2019/04/28/15:00:46.405662,5507,1556456444,433429,gps,0,5,22.2971714,114.17625,43.443,"(11.950849, 0.0, 0.0, 0.0, 11.950849, 0.0, 0.0, 0.0, 163.35396100000003)",2
2019/04/28/15:00:47.392596,5508,1556456445,433059,gps,0,5,22.2971695,114.1761829,39.951,"(10.969344, 0.0, 0.0, 0.0, 10.969344, 0.0, 0.0, 0.0, 151.240804)",2
2019/04/28/15:00:48.409561,5509,1556456446,432684,gps,0,5,22.2971742,114.1761172,38.516,"(11.235904, 0.0, 0.0, 0.0, 11.235904, 0.0, 0.0, 0.0, 151.486864)",2
2019/04/28/15:00:49.393025,5510,1556456447,432309,gps,0,5,22.2971808,114.1760545,37.225,"(12.229009, 0.0, 0.0, 0.0, 12.229009, 0.0, 0.0, 0.0, 153.685609)",2
2019/04/28/15:00:50.392918,5511,1556456448,431932,gps,0,5,22.2971844,114.1759955,36.457,"(13.053768999999999, 0.0, 0.0, 0.0, 13.053768999999999, 0.0, 0.0, 0.0, 158.03004099999998)",2
2019/04/28/15:00:51.385183,5512,1556456449,431559,gps,0,5,22.2971849,114.1759455,34.454,"(13.498275999999999, 0.0, 0.0, 0.0, 13.498275999999999, 0.0, 0.0, 0.0, 161.54410000000001)",2
2019/04/28/15:00:52.385626,5513,1556456450,431185,gps,0,5,22.2971862,114.1759042,32.68,"(13.111641, 0.0, 0.0, 0.0, 13.111641, 0.0, 0.0, 0.0, 159.01209999999998)",2
2019/04/28/15:00:53.431213,5514,1556456451,430813,gps,0,5,22.2971857,114.1758683,29.7,"(12.766328999999999, 0.0, 0.0, 0.0, 12.766328999999999, 0.0, 0.0, 0.0, 154.480041)",2
2019/04/28/15:00:54.395597,5515,1556456452,430442,gps,0,5,22.2971846,114.1758324,26.976,"(12.482089, 0.0, 0.0, 0.0, 12.482089, 0.0, 0.0, 0.0, 154.281241)",2
2019/04/28/15:00:55.393719,5516,1556456453,430067,gps,0,5,22.297185,114.1758004,25.55,"(12.208036000000002, 0.0, 0.0, 0.0, 12.208036000000002, 0.0, 0.0, 0.0, 153.313924)",2
2019/04/28/15:00:56.393479,5517,1556456454,429690,gps,0,5,22.2971867,114.175771,24.507,"(11.978520999999999, 0.0, 0.0, 0.0, 11.978520999999999, 0.0, 0.0, 0.0, 154.828249)",2
2019/04/28/15:00:57.406080,5518,1556456455,429327,gps,0,5,22.2971815,114.1757346,18.137,"(7.306208999999999, 0.0, 0.0, 0.0, 7.306208999999999, 0.0, 0.0, 0.0, 105.53452899999999)",2
2019/04/28/15:00:58.375621,5519,1556456456,428960,gps,0,5,22.2971814,114.1756934,13.711,"(4.9729, 0.0, 0.0, 0.0, 4.9729, 0.0, 0.0, 0.0, 71.28424899999999)",2
2019/04/28/15:00:59.395408,5520,1556456457,428584,gps,0,5,22.2971877,114.1756502,12.444,"(4.435236, 0.0, 0.0, 0.0, 4.435236, 0.0, 0.0, 0.0, 60.233121000000004)",2
2019/04/28/15:01:00.390977,5521,1556456458,428208,gps,0,5,22.2972032,114.1756075,11.323,"(4.368099999999999, 0.0, 0.0, 0.0, 4.368099999999999, 0.0, 0.0, 0.0, 55.935441000000004)",2
2019/04/28/15:01:01.381576,5522,1556456459,427831,gps,0,5,22.2972277,114.1755689,10.626,"(4.840000000000001, 0.0, 0.0, 0.0, 4.840000000000001, 0.0, 0.0, 0.0, 57.289761)",2
2019/04/28/15:01:02.391637,5523,1556456460,427454,gps,0,5,22.2972603,114.1755404,10.148,"(5.317636, 0.0, 0.0, 0.0, 5.317636, 0.0, 0.0, 0.0, 55.905529)",2
2019/04/28/15:01:03.398192,5524,1556456461,427076,gps,0,5,22.2972955,114.1755162,10.101,"(6.290064, 0.0, 0.0, 0.0, 6.290064, 0.0, 0.0, 0.0, 60.87120399999999)",2
2019/04/28/15:01:04.391635,5525,1556456462,426700,gps,0,5,22.2973336,114.1754879,9.981,"(8.254129, 0.0, 0.0, 0.0, 8.254129, 0.0, 0.0, 0.0, 69.438889)",2
2019/04/28/15:01:05.390051,5526,1556456463,426321,gps,0,5,22.297377,114.1754768,10.747,"(9.375843999999999, 0.0, 0.0, 0.0, 9.375843999999999, 0.0, 0.0, 0.0, 74.166544)",2
2019/04/28/15:01:06.382944,5527,1556456464,425943,gps,0,5,22.2974215,114.1754802,11.199,"(11.142244, 0.0, 0.0, 0.0, 11.142244, 0.0, 0.0, 0.0, 84.16227599999999)",2
2019/04/28/15:01:07.368277,5528,1556456465,425568,gps,0,5,22.2974692,114.1754785,11.164,"(16.104169, 0.0, 0.0, 0.0, 16.104169, 0.0, 0.0, 0.0, 98.4064)",2
2019/04/28/15:01:08.373610,5529,1556456466,425191,gps,0,5,22.2975199,114.1754634,12.338,"(25.553024999999998, 0.0, 0.0, 0.0, 25.553024999999998, 0.0, 0.0, 0.0, 121.17606399999998)",2
2019/04/28/15:01:09.368303,5530,1556456467,424813,gps,0,5,22.2975755,114.1754591,13.464,"(42.1201, 0.0, 0.0, 0.0, 42.1201, 0.0, 0.0, 0.0, 148.328041)",2
2019/04/28/15:01:10.380195,5531,1556456468,424440,gps,0,5,22.2976377,114.1754644,11.668,"(51.84, 0.0, 0.0, 0.0, 51.84, 0.0, 0.0, 0.0, 168.246841)",2
2019/04/28/15:01:11.371031,5532,1556456469,424063,gps,0,5,22.2977066,114.1754745,10.459,"(53.304601000000005, 0.0, 0.0, 0.0, 53.304601000000005, 0.0, 0.0, 0.0, 164.968336)",2
2019/04/28/15:01:12.367075,5533,1556456470,423681,gps,0,5,22.2977787,114.1754904,11.654,"(53.978409000000006, 0.0, 0.0, 0.0, 53.978409000000006, 0.0, 0.0, 0.0, 163.302841)",2
2019/04/28/15:01:13.369605,5534,1556456471,423300,gps,0,5,22.2978512,114.1755083,12.266,"(55.756088999999996, 0.0, 0.0, 0.0, 55.756088999999996, 0.0, 0.0, 0.0, 169.624576)",2
2019/04/28/15:01:14.369025,5535,1556456472,422924,gps,0,5,22.2979301,114.1755314,11.28,"(55.338721, 0.0, 0.0, 0.0, 55.338721, 0.0, 0.0, 0.0, 172.71216399999997)",2
2019/04/28/15:01:15.378299,5536,1556456473,422548,gps,0,5,22.2980108,114.1755552,9.943,"(54.1696, 0.0, 0.0, 0.0, 54.1696, 0.0, 0.0, 0.0, 165.842884)",2
2019/04/28/15:01:16.377984,5537,1556456474,422167,gps,0,5,22.2980939,114.1755814,10.894,"(50.665924000000004, 0.0, 0.0, 0.0, 50.665924000000004, 0.0, 0.0, 0.0, 159.08776899999998)",2
2019/04/28/15:01:17.390008,5538,1556456475,421788,gps,0,5,22.2981789,114.1756023,10.605,"(48.69248399999999, 0.0, 0.0, 0.0, 48.69248399999999, 0.0, 0.0, 0.0, 151.265401)",2
2019/04/28/15:01:18.376778,5539,1556456476,421410,gps,0,5,22.2982674,114.1756081,10.852,"(49.098048999999996, 0.0, 0.0, 0.0, 49.098048999999996, 0.0, 0.0, 0.0, 151.634596)",2
2019/04/28/15:01:19.381632,5540,1556456477,421028,gps,0,5,22.2983652,114.1755772,13.302,"(49.632025, 0.0, 0.0, 0.0, 49.632025, 0.0, 0.0, 0.0, 153.16537599999998)",2
2019/04/28/15:01:20.392517,5541,1556456478,420646,gps,0,5,22.2984692,114.1755363,16.216,"(51.136801, 0.0, 0.0, 0.0, 51.136801, 0.0, 0.0, 0.0, 156.075049)",2
2019/04/28/15:01:21.383627,5542,1556456479,420267,gps,0,5,22.2985606,114.1755349,16.693,"(51.2656, 0.0, 0.0, 0.0, 51.2656, 0.0, 0.0, 0.0, 153.462544)",2
2019/04/28/15:01:22.388211,5543,1556456480,419890,gps,0,5,22.2986393,114.1755569,16.421,"(50.59476900000001, 0.0, 0.0, 0.0, 50.59476900000001, 0.0, 0.0, 0.0, 154.480041)",2
2019/04/28/15:01:23.378213,5544,1556456481,419518,gps,0,5,22.2987202,114.1755696,14.927,"(50.197224999999996, 0.0, 0.0, 0.0, 50.197224999999996, 0.0, 0.0, 0.0, 158.105476)",2
2019/04/28/15:01:24.383584,5545,1556456482,419141,gps,0,5,22.2987962,114.1755992,14.019,"(48.636676, 0.0, 0.0, 0.0, 48.636676, 0.0, 0.0, 0.0, 160.427556)",2
2019/04/28/15:01:25.391193,5546,1556456483,418767,gps,0,5,22.2988895,114.1756289,10.35,"(38.71328400000001, 0.0, 0.0, 0.0, 38.71328400000001, 0.0, 0.0, 0.0, 129.777664)",2
2019/04/28/15:01:26.385679,5547,1556456484,418379,gps,0,5,22.2989523,114.1756795,13.45,"(36.168196, 0.0, 0.0, 0.0, 36.168196, 0.0, 0.0, 0.0, 125.843524)",2
2019/04/28/15:01:27.385829,5548,1556456485,418003,gps,0,5,22.2990123,114.1757194,11.638,"(32.512804, 0.0, 0.0, 0.0, 32.512804, 0.0, 0.0, 0.0, 117.35388900000001)",2
2019/04/28/15:01:28.376727,5549,1556456486,417625,gps,0,5,22.299075,114.1757422,10.988,"(30.658369, 0.0, 0.0, 0.0, 30.658369, 0.0, 0.0, 0.0, 111.260304)",2
2019/04/28/15:01:29.383735,5550,1556456487,417246,gps,0,5,22.2991341,114.175737,12.073,"(29.746115999999997, 0.0, 0.0, 0.0, 29.746115999999997, 0.0, 0.0, 0.0, 111.04944400000001)",2
2019/04/28/15:01:30.383622,5551,1556456488,416865,gps,0,5,22.2991794,114.1757296,13.527,"(29.170800999999997, 0.0, 0.0, 0.0, 29.170800999999997, 0.0, 0.0, 0.0, 113.103225)",2
2019/04/28/15:01:31.383232,5552,1556456489,416488,gps,0,5,22.2992101,114.1757374,13.267,"(29.975624999999997, 0.0, 0.0, 0.0, 29.975624999999997, 0.0, 0.0, 0.0, 114.661264)",2
2019/04/28/15:01:32.392501,5553,1556456490,416107,gps,0,5,22.299227,114.1757418,15.042,"(32.251041, 0.0, 0.0, 0.0, 32.251041, 0.0, 0.0, 0.0, 122.83288900000001)",2
2019/04/28/15:01:33.366277,5554,1556456491,415725,gps,0,5,22.2992363,114.1757368,17.071,"(35.700624999999995, 0.0, 0.0, 0.0, 35.700624999999995, 0.0, 0.0, 0.0, 133.749225)",2
2019/04/28/15:01:34.387477,5555,1556456492,415342,gps,0,5,22.2992414,114.1757387,19.299,"(39.790864, 0.0, 0.0, 0.0, 39.790864, 0.0, 0.0, 0.0, 146.79745599999998)",2
2019/04/28/15:01:35.400813,5556,1556456493,414961,gps,0,5,22.2992451,114.1757339,20.925,"(43.77145599999999, 0.0, 0.0, 0.0, 43.77145599999999, 0.0, 0.0, 0.0, 165.40532100000001)",2
2019/04/28/15:01:36.377870,5557,1556456494,414581,gps,0,5,22.2992472,114.1757307,22.548,"(47.844888999999995, 0.0, 0.0, 0.0, 47.844888999999995, 0.0, 0.0, 0.0, 190.274436)",2
2019/04/28/15:01:37.365850,5558,1556456495,414200,gps,0,5,22.2992484,114.1757298,24.32,"(52.649536000000005, 0.0, 0.0, 0.0, 52.649536000000005, 0.0, 0.0, 0.0, 219.454596)",2
2019/04/28/15:01:38.376630,5559,1556456496,413821,gps,0,5,22.2992502,114.1757263,25.14,"(57.35032900000001, 0.0, 0.0, 0.0, 57.35032900000001, 0.0, 0.0, 0.0, 252.619236)",2
2019/04/28/15:01:39.375816,5560,1556456497,413440,gps,0,5,22.2992593,114.1757136,26.216,"(57.274623999999996, 0.0, 0.0, 0.0, 57.274623999999996, 0.0, 0.0, 0.0, 287.709444)",2
2019/04/28/15:01:40.375940,5561,1556456498,413061,gps,0,5,22.2992621,114.1757153,26.675,"(62.504836, 0.0, 0.0, 0.0, 62.504836, 0.0, 0.0, 0.0, 326.48876099999995)",2
2019/04/28/15:01:41.387446,5562,1556456499,412679,gps,0,5,22.2992577,114.175719,28.061,"(69.139225, 0.0, 0.0, 0.0, 69.139225, 0.0, 0.0, 0.0, 372.9533440000001)",2
2019/04/28/15:01:42.385242,5563,1556456500,412298,gps,0,5,22.2992574,114.175721,29.506,"(74.32164100000001, 0.0, 0.0, 0.0, 74.32164100000001, 0.0, 0.0, 0.0, 412.57734400000004)",2
2019/04/28/15:01:43.383739,5564,1556456501,411916,gps,0,5,22.2992615,114.1757238,30.972,"(78.16328099999998, 0.0, 0.0, 0.0, 78.16328099999998, 0.0, 0.0, 0.0, 450.076225)",2
2019/04/28/15:01:44.385731,5565,1556456502,411547,gps,0,5,22.2992637,114.1757136,28.137,"(81.61315600000002, 0.0, 0.0, 0.0, 81.61315600000002, 0.0, 0.0, 0.0, 478.384384)",2
2019/04/28/15:01:45.408336,5566,1556456503,411181,gps,0,5,22.2992652,114.1756981,24.175,"(83.320384, 0.0, 0.0, 0.0, 83.320384, 0.0, 0.0, 0.0, 495.28502499999996)",2
2019/04/28/15:01:46.402831,5567,1556456504,410797,gps,0,5,22.2992716,114.1756999,27.334,"(85.229824, 0.0, 0.0, 0.0, 85.229824, 0.0, 0.0, 0.0, 512.162161)",2
2019/04/28/15:01:47.372900,5568,1556456505,410419,gps,0,5,22.2992732,114.1756967,27.764,"(90.11704900000001, 0.0, 0.0, 0.0, 90.11704900000001, 0.0, 0.0, 0.0, 549.4336000000001)",2
2019/04/28/15:01:48.386740,5569,1556456506,410046,gps,0,5,22.2992808,114.1756906,25.754,"(92.85249599999999, 0.0, 0.0, 0.0, 92.85249599999999, 0.0, 0.0, 0.0, 572.2620840000001)",2
2019/04/28/15:01:49.389908,5570,1556456507,409675,gps,0,5,22.2992977,114.1756853,23.363,"(95.316169, 0.0, 0.0, 0.0, 95.316169, 0.0, 0.0, 0.0, 584.4306250000001)",2
2019/04/28/15:01:50.385623,5571,1556456508,409305,gps,0,5,22.29932,114.1756743,20.77,"(100.982401, 0.0, 0.0, 0.0, 100.982401, 0.0, 0.0, 0.0, 613.850176)",2
2019/04/28/15:01:51.380823,5572,1556456509,408921,gps,0,5,22.2993398,114.1756772,23.359,"(99.78012100000001, 0.0, 0.0, 0.0, 99.78012100000001, 0.0, 0.0, 0.0, 587.3352249999999)",2
2019/04/28/15:01:52.374711,5573,1556456510,408548,gps,0,5,22.299351,114.1756738,21.316,"(95.121009, 0.0, 0.0, 0.0, 95.121009, 0.0, 0.0, 0.0, 526.151844)",2
2019/04/28/15:01:53.381765,5574,1556456511,408170,gps,0,5,22.2993656,114.175683,20.783,"(89.756676, 0.0, 0.0, 0.0, 89.756676, 0.0, 0.0, 0.0, 465.65324100000004)",2
2019/04/28/15:01:54.380759,5575,1556456512,407793,gps,0,5,22.2993899,114.1756927,19.715,"(85.488516, 0.0, 0.0, 0.0, 85.488516, 0.0, 0.0, 0.0, 427.00089600000007)",2
2019/04/28/15:01:55.386980,5576,1556456513,407419,gps,0,5,22.2994217,114.1757074,17.738,"(82.35562499999999, 0.0, 0.0, 0.0, 82.35562499999999, 0.0, 0.0, 0.0, 397.803025)",2
2019/04/28/15:01:56.391727,5577,1556456514,407043,gps,0,5,22.2994581,114.1757207,16.482,"(79.31683600000001, 0.0, 0.0, 0.0, 79.31683600000001, 0.0, 0.0, 0.0, 379.89908099999997)",2
2019/04/28/15:01:57.381776,5578,1556456515,406659,gps,0,5,22.2995041,114.175731,19.345,"(77.77476100000001, 0.0, 0.0, 0.0, 77.77476100000001, 0.0, 0.0, 0.0, 367.3738890000001)",2
2019/04/28/15:01:58.420991,5579,1556456516,406285,gps,0,5,22.299556,114.1757369,18.464,"(75.91636899999999, 0.0, 0.0, 0.0, 75.91636899999999, 0.0, 0.0, 0.0, 350.8503610000001)",2
2019/04/28/15:01:59.377984,5580,1556456517,405897,gps,0,5,22.2996185,114.1757845,20.631,"(60.652944000000005, 0.0, 0.0, 0.0, 60.652944000000005, 0.0, 0.0, 0.0, 322.81308899999993)",2
2019/04/28/15:02:00.383672,5581,1556456518,405512,gps,0,5,22.2996824,114.175822,22.747,"(45.225624999999994, 0.0, 0.0, 0.0, 45.225624999999994, 0.0, 0.0, 0.0, 302.23822500000006)",2
2019/04/28/15:02:01.381565,5582,1556456519,405137,gps,0,5,22.2997482,114.1758406,21.645,"(45.225624999999994, 0.0, 0.0, 0.0, 45.225624999999994, 0.0, 0.0, 0.0, 300.08632900000003)",2
2019/04/28/15:02:02.383475,5583,1556456520,404762,gps,0,5,22.2998192,114.1758592,21.091,"(47.348161000000005, 0.0, 0.0, 0.0, 47.348161000000005, 0.0, 0.0, 0.0, 298.21836099999996)",2
2019/04/28/15:02:03.362638,5584,1556456521,404388,gps,0,5,22.2998966,114.1758722,20.379,"(49.9849, 0.0, 0.0, 0.0, 49.9849, 0.0, 0.0, 0.0, 297.459009)",2
2019/04/28/15:02:04.371414,5585,1556456522,404014,gps,0,5,22.2999779,114.1758908,18.759,"(53.963716, 0.0, 0.0, 0.0, 53.963716, 0.0, 0.0, 0.0, 301.33488100000005)",2
2019/04/28/15:02:05.368160,5586,1556456523,403638,gps,0,5,22.300062,114.1759129,17.806,"(58.721569, 0.0, 0.0, 0.0, 58.721569, 0.0, 0.0, 0.0, 308.318481)",2
2019/04/28/15:02:06.371705,5587,1556456524,403260,gps,0,5,22.3001475,114.1759355,17.824,"(64.88302499999999, 0.0, 0.0, 0.0, 64.88302499999999, 0.0, 0.0, 0.0, 318.33696399999997)",2
2019/04/28/15:02:07.372683,5588,1556456525,402884,gps,0,5,22.3002354,114.1759633,17.095,"(72.94868100000001, 0.0, 0.0, 0.0, 72.94868100000001, 0.0, 0.0, 0.0, 331.23999999999995)",2
2019/04/28/15:02:08.370251,5589,1556456526,402509,gps,0,5,22.3003249,114.1759859,16.333,"(80.92801600000001, 0.0, 0.0, 0.0, 80.92801600000001, 0.0, 0.0, 0.0, 334.633849)",2
2019/04/28/15:02:09.378274,5590,1556456527,402130,gps,0,5,22.3004147,114.1760138,16.831,"(83.265625, 0.0, 0.0, 0.0, 83.265625, 0.0, 0.0, 0.0, 325.261225)",2
2019/04/28/15:02:10.388703,5591,1556456528,401749,gps,0,5,22.3005018,114.1760537,17.565,"(86.54580900000002, 0.0, 0.0, 0.0, 86.54580900000002, 0.0, 0.0, 0.0, 325.694209)",2
2019/04/28/15:02:11.393874,5592,1556456529,401371,gps,0,5,22.3005825,114.1760892,18.2,"(82.60992100000001, 0.0, 0.0, 0.0, 82.60992100000001, 0.0, 0.0, 0.0, 333.93907600000006)",2
2019/04/28/15:02:12.382006,5593,1556456530,400995,gps,0,5,22.3006676,114.1761232,17.699,"(80.712256, 0.0, 0.0, 0.0, 80.712256, 0.0, 0.0, 0.0, 343.17562499999997)",2
2019/04/28/15:02:13.372147,5594,1556456531,400618,gps,0,5,22.3007564,114.1761541,17.874,"(85.229824, 0.0, 0.0, 0.0, 85.229824, 0.0, 0.0, 0.0, 361.22803600000003)",2
2019/04/28/15:02:14.373083,5595,1556456532,400241,gps,0,5,22.3008431,114.1761918,17.675,"(97.397161, 0.0, 0.0, 0.0, 97.397161, 0.0, 0.0, 0.0, 385.690321)",2
2019/04/28/15:02:15.405331,5596,1556456533,399864,gps,0,5,22.3009336,114.1762239,17.083,"(112.46602500000002, 0.0, 0.0, 0.0, 112.46602500000002, 0.0, 0.0, 0.0, 418.07980899999995)",2
2019/04/28/15:02:16.363055,5597,1556456534,399489,gps,0,5,22.30103,114.1762549,16.234,"(131.652676, 0.0, 0.0, 0.0, 131.652676, 0.0, 0.0, 0.0, 450.84028900000004)",2
2019/04/28/15:02:17.374071,5598,1556456535,399111,gps,0,5,22.3011252,114.176289,16.22,"(148.3524, 0.0, 0.0, 0.0, 148.3524, 0.0, 0.0, 0.0, 482.63696100000004)",2
2019/04/28/15:02:18.368081,5599,1556456536,398736,gps,0,5,22.3012215,114.1763242,15.444,"(162.43502499999997, 0.0, 0.0, 0.0, 162.43502499999997, 0.0, 0.0, 0.0, 512.162161)",2
2019/04/28/15:02:19.371212,5600,1556456537,398363,gps,0,5,22.3013216,114.1763579,13.073,"(173.97609999999997, 0.0, 0.0, 0.0, 173.97609999999997, 0.0, 0.0, 0.0, 539.772289)",2
2019/04/28/15:02:20.375973,5601,1556456538,397984,gps,0,5,22.3014169,114.1764003,13.203,"(156.15001600000002, 0.0, 0.0, 0.0, 156.15001600000002, 0.0, 0.0, 0.0, 517.5625)",2
2019/04/28/15:02:21.398964,5602,1556456539,397619,gps,0,5,22.3015224,114.1764493,6.179,"(93.54758400000001, 0.0, 0.0, 0.0, 93.54758400000001, 0.0, 0.0, 0.0, 418.939024)",2
2019/04/28/15:02:22.394030,5603,1556456540,397238,gps,0,5,22.3016446,114.1764903,5.616,"(79.88784400000002, 0.0, 0.0, 0.0, 79.88784400000002, 0.0, 0.0, 0.0, 340.29180899999994)",2
2019/04/28/15:02:23.392866,5604,1556456541,396861,gps,0,5,22.3017514,114.1765394,3.991,"(69.338929, 0.0, 0.0, 0.0, 69.338929, 0.0, 0.0, 0.0, 309.26739599999996)",2
2019/04/28/15:02:24.400923,5605,1556456542,396487,gps,0,5,22.3018614,114.1765751,2.195,"(56.791295999999996, 0.0, 0.0, 0.0, 56.791295999999996, 0.0, 0.0, 0.0, 249.798025)",2
2019/04/28/15:02:25.394243,5606,1556456543,396108,gps,0,5,22.301962,114.1766193,2.452,"(42.393121, 0.0, 0.0, 0.0, 42.393121, 0.0, 0.0, 0.0, 169.624576)",2
2019/04/28/15:02:26.413441,5607,1556456544,395738,gps,0,5,22.3020609,114.1766507,-1.061,"(33.732864, 0.0, 0.0, 0.0, 33.732864, 0.0, 0.0, 0.0, 150.651076)",2
2019/04/28/15:02:27.407111,5608,1556456545,395357,gps,0,5,22.3021605,114.1767007,-1.284,"(23.551609, 0.0, 0.0, 0.0, 23.551609, 0.0, 0.0, 0.0, 124.90297600000001)",2
2019/04/28/15:02:28.405554,5609,1556456546,394973,gps,0,5,22.3022594,114.1767511,1.013,"(15.594600999999999, 0.0, 0.0, 0.0, 15.594600999999999, 0.0, 0.0, 0.0, 94.264681)",2
2019/04/28/15:02:29.396187,5610,1556456547,394591,gps,0,5,22.3023529,114.1767966,2.267,"(10.778089, 0.0, 0.0, 0.0, 10.778089, 0.0, 0.0, 0.0, 69.42222400000001)",2
2019/04/28/15:02:30.401955,5611,1556456548,394216,gps,0,5,22.3024409,114.1768336,0.867,"(8.105409, 0.0, 0.0, 0.0, 8.105409, 0.0, 0.0, 0.0, 54.715609)",2
2019/04/28/15:02:31.396231,5612,1556456549,393839,gps,0,5,22.3025182,114.1768716,0.828,"(6.086089, 0.0, 0.0, 0.0, 6.086089, 0.0, 0.0, 0.0, 44.462224)",2
2019/04/28/15:02:32.402077,5613,1556456550,393462,gps,0,5,22.3025823,114.1769085,0.723,"(3.976036, 0.0, 0.0, 0.0, 3.976036, 0.0, 0.0, 0.0, 33.016516)",2
2019/04/28/15:02:33.408712,5614,1556456551,393084,gps,0,5,22.3026322,114.1769392,0.867,"(2.8934010000000003, 0.0, 0.0, 0.0, 2.8934010000000003, 0.0, 0.0, 0.0, 26.061025000000004)",2
2019/04/28/15:02:34.401269,5615,1556456552,392705,gps,0,5,22.3026695,114.1769642,1.195,"(2.374681, 0.0, 0.0, 0.0, 2.374681, 0.0, 0.0, 0.0, 22.534008999999998)",2
2019/04/28/15:02:35.390122,5616,1556456553,392326,gps,0,5,22.3026946,114.1769791,1.471,"(2.1904, 0.0, 0.0, 0.0, 2.1904, 0.0, 0.0, 0.0, 20.884900000000002)",2
2019/04/28/15:02:36.401709,5617,1556456554,391947,gps,0,5,22.3027096,114.1769884,1.651,"(2.013561, 0.0, 0.0, 0.0, 2.013561, 0.0, 0.0, 0.0, 19.175640999999995)",2
2019/04/28/15:02:37.395165,5618,1556456555,391568,gps,0,5,22.3027185,114.1769943,1.861,"(1.7956000000000003, 0.0, 0.0, 0.0, 1.7956000000000003, 0.0, 0.0, 0.0, 17.297280999999998)",2
2019/04/28/15:02:38.395873,5619,1556456556,391190,gps,0,5,22.3027214,114.176997,2.01,"(1.602756, 0.0, 0.0, 0.0, 1.602756, 0.0, 0.0, 0.0, 15.563024999999998)",2
2019/04/28/15:02:39.394945,5620,1556456557,390811,gps,0,5,22.3027216,114.1769983,2.166,"(1.4641, 0.0, 0.0, 0.0, 1.4641, 0.0, 0.0, 0.0, 14.455204)",2
2019/04/28/15:02:40.390963,5621,1556456558,390433,gps,0,5,22.3027219,114.1769991,2.128,"(1.3806250000000002, 0.0, 0.0, 0.0, 1.3806250000000002, 0.0, 0.0, 0.0, 13.660416000000001)",2
2019/04/28/15:02:41.398910,5622,1556456559,390055,gps,0,5,22.3027222,114.177,2.125,"(1.315609, 0.0, 0.0, 0.0, 1.315609, 0.0, 0.0, 0.0, 12.967201)",2
2019/04/28/15:02:42.393335,5623,1556456560,389678,gps,0,5,22.3027226,114.1770012,2.101,"(1.247689, 0.0, 0.0, 0.0, 1.247689, 0.0, 0.0, 0.0, 12.3904)",2
2019/04/28/15:02:43.387145,5624,1556456561,389300,gps,0,5,22.3027227,114.1770021,2.1,"(1.1837440000000001, 0.0, 0.0, 0.0, 1.1837440000000001, 0.0, 0.0, 0.0, 11.874916)",2
2019/04/28/15:02:44.392425,5625,1556456562,388923,gps,0,5,22.3027229,114.1770028,2.056,"(1.1363560000000001, 0.0, 0.0, 0.0, 1.1363560000000001, 0.0, 0.0, 0.0, 11.519236000000001)",2
2019/04/28/15:02:45.389098,5626,1556456563,388545,gps,0,5,22.302723,114.1770033,2.006,"(1.100401, 0.0, 0.0, 0.0, 1.100401, 0.0, 0.0, 0.0, 11.215801)",2
2019/04/28/15:02:46.388975,5627,1556456564,388168,gps,0,5,22.3027229,114.1770038,1.912,"(1.065024, 0.0, 0.0, 0.0, 1.065024, 0.0, 0.0, 0.0, 10.956100000000001)",2
2019/04/28/15:02:47.393887,5628,1556456565,387792,gps,0,5,22.3027228,114.1770041,1.889,"(1.0383609999999999, 0.0, 0.0, 0.0, 1.0383609999999999, 0.0, 0.0, 0.0, 10.738729000000001)",2
2019/04/28/15:02:48.395170,5629,1556456566,387415,gps,0,5,22.3027228,114.1770045,1.89,"(1.0140489999999998, 0.0, 0.0, 0.0, 1.0140489999999998, 0.0, 0.0, 0.0, 10.484644)",2
2019/04/28/15:02:49.388160,5630,1556456567,387038,gps,0,5,22.3027225,114.1770048,1.788,"(0.996004, 0.0, 0.0, 0.0, 0.996004, 0.0, 0.0, 0.0, 10.323369000000001)",2
2019/04/28/15:02:50.401290,5631,1556456568,386662,gps,0,5,22.3027224,114.177005,1.795,"(0.978121, 0.0, 0.0, 0.0, 0.978121, 0.0, 0.0, 0.0, 10.125124)",2
2019/04/28/15:02:51.397974,5632,1556456569,386286,gps,0,5,22.3027223,114.1770052,1.793,"(0.964324, 0.0, 0.0, 0.0, 0.964324, 0.0, 0.0, 0.0, 9.972964)",2
2019/04/28/15:02:52.388479,5633,1556456570,385910,gps,0,5,22.3027221,114.1770054,1.709,"(0.948676, 0.0, 0.0, 0.0, 0.948676, 0.0, 0.0, 0.0, 9.790641)",2
2019/04/28/15:02:53.393066,5634,1556456571,385534,gps,0,5,22.3027219,114.1770055,1.549,"(0.933156, 0.0, 0.0, 0.0, 0.933156, 0.0, 0.0, 0.0, 9.579025000000001)",2
2019/04/28/15:02:54.392951,5635,1556456572,385158,gps,0,5,22.3027217,114.1770053,1.458,"(0.919681, 0.0, 0.0, 0.0, 0.919681, 0.0, 0.0, 0.0, 9.375843999999999)",2
2019/04/28/15:02:55.389064,5636,1556456573,384782,gps,0,5,22.3027216,114.177005,1.239,"(0.9025, 0.0, 0.0, 0.0, 0.9025, 0.0, 0.0, 0.0, 9.144576)",2
2019/04/28/15:02:56.398696,5637,1556456574,384407,gps,0,5,22.3027215,114.1770048,1.071,"(0.889249, 0.0, 0.0, 0.0, 0.889249, 0.0, 0.0, 0.0, 8.934121)",2
2019/04/28/15:02:57.386053,5638,1556456575,384032,gps,0,5,22.3027214,114.1770046,0.863,"(0.8760960000000001, 0.0, 0.0, 0.0, 0.8760960000000001, 0.0, 0.0, 0.0, 8.673024999999999)",2
2019/04/28/15:02:58.387426,5639,1556456576,383656,gps,0,5,22.3027214,114.1770044,0.687,"(0.8667610000000001, 0.0, 0.0, 0.0, 0.8667610000000001, 0.0, 0.0, 0.0, 8.468100000000002)",2
2019/04/28/15:02:59.388149,5640,1556456577,383281,gps,0,5,22.3027212,114.1770043,0.359,"(0.8574760000000001, 0.0, 0.0, 0.0, 0.8574760000000001, 0.0, 0.0, 0.0, 8.323224999999999)",2
2019/04/28/15:03:00.387501,5641,1556456578,382906,gps,0,5,22.3027211,114.1770043,0.265,"(0.848241, 0.0, 0.0, 0.0, 0.848241, 0.0, 0.0, 0.0, 8.225423999999999)",2
2019/04/28/15:03:01.393234,5642,1556456579,382531,gps,0,5,22.302721,114.1770042,0.171,"(0.8464, 0.0, 0.0, 0.0, 0.8464, 0.0, 0.0, 0.0, 8.128201)",2
2019/04/28/15:03:02.392214,5643,1556456580,382156,gps,0,5,22.3027207,114.1770042,-0.07,"(0.839056, 0.0, 0.0, 0.0, 0.839056, 0.0, 0.0, 0.0, 8.003241000000001)",2
2019/04/28/15:03:03.389431,5644,1556456581,381781,gps,0,5,22.3027206,114.1770043,-0.103,"(0.835396, 0.0, 0.0, 0.0, 0.835396, 0.0, 0.0, 0.0, 7.941124)",2
2019/04/28/15:03:04.394039,5645,1556456582,381406,gps,0,5,22.3027203,114.1770042,-0.284,"(0.8372250000000001, 0.0, 0.0, 0.0, 0.8372250000000001, 0.0, 0.0, 0.0, 7.896100000000001)",2
2019/04/28/15:03:05.393987,5646,1556456583,381031,gps,0,5,22.3027199,114.1770043,-0.536,"(0.8408890000000001, 0.0, 0.0, 0.0, 0.8408890000000001, 0.0, 0.0, 0.0, 7.896100000000001)",2
2019/04/28/15:03:06.386476,5647,1556456584,380656,gps,0,5,22.3027197,114.1770045,-0.638,"(0.842724, 0.0, 0.0, 0.0, 0.842724, 0.0, 0.0, 0.0, 7.912969000000001)",2
2019/04/28/15:03:07.393001,5648,1556456585,380281,gps,0,5,22.3027194,114.1770045,-0.842,"(0.842724, 0.0, 0.0, 0.0, 0.842724, 0.0, 0.0, 0.0, 7.924225)",2
2019/04/28/15:03:08.399425,5649,1556456586,379906,gps,0,5,22.3027193,114.1770045,-1.018,"(0.842724, 0.0, 0.0, 0.0, 0.842724, 0.0, 0.0, 0.0, 7.941124)",2
2019/04/28/15:03:09.386494,5650,1556456587,379531,gps,0,5,22.3027193,114.1770047,-1.132,"(0.842724, 0.0, 0.0, 0.0, 0.842724, 0.0, 0.0, 0.0, 7.974975999999999)",2
2019/04/28/15:03:10.401357,5651,1556456588,379157,gps,0,5,22.302719,114.1770048,-1.247,"(0.8500840000000001, 0.0, 0.0, 0.0, 0.8500840000000001, 0.0, 0.0, 0.0, 8.059921)",2
2019/04/28/15:03:11.394026,5652,1556456589,378782,gps,0,5,22.3027189,114.1770048,-1.326,"(0.8537760000000001, 0.0, 0.0, 0.0, 0.8537760000000001, 0.0, 0.0, 0.0, 8.139609000000002)",2
2019/04/28/15:03:12.386060,5653,1556456590,378407,gps,0,5,22.3027187,114.1770048,-1.439,"(0.8593290000000001, 0.0, 0.0, 0.0, 0.8593290000000001, 0.0, 0.0, 0.0, 8.168164)",2
2019/04/28/15:03:13.388615,5654,1556456591,378033,gps,0,5,22.3027184,114.177005,-1.458,"(0.8667610000000001, 0.0, 0.0, 0.0, 0.8667610000000001, 0.0, 0.0, 0.0, 8.225423999999999)",2
2019/04/28/15:03:14.398902,5655,1556456592,377658,gps,0,5,22.3027181,114.1770053,-1.409,"(0.8704890000000001, 0.0, 0.0, 0.0, 0.8704890000000001, 0.0, 0.0, 0.0, 8.259876)",2
2019/04/28/15:03:15.386346,5656,1556456593,377283,gps,0,5,22.3027181,114.1770054,-1.291,"(0.8704890000000001, 0.0, 0.0, 0.0, 0.8704890000000001, 0.0, 0.0, 0.0, 8.242641)",2
2019/04/28/15:03:16.396531,5657,1556456594,376908,gps,0,5,22.302718,114.1770054,-1.304,"(0.8667610000000001, 0.0, 0.0, 0.0, 0.8667610000000001, 0.0, 0.0, 0.0, 8.168164)",2
2019/04/28/15:03:17.392241,5658,1556456595,376533,gps,0,5,22.3027179,114.1770056,-1.251,"(0.8593290000000001, 0.0, 0.0, 0.0, 0.8593290000000001, 0.0, 0.0, 0.0, 8.094025)",2
2019/04/28/15:03:18.386476,5659,1556456596,376159,gps,0,5,22.3027177,114.1770056,-1.24,"(0.8556250000000001, 0.0, 0.0, 0.0, 0.8556250000000001, 0.0, 0.0, 0.0, 7.974975999999999)",2
2019/04/28/15:03:19.390419,5660,1556456597,375784,gps,0,5,22.3027175,114.1770058,-1.2,"(0.851929, 0.0, 0.0, 0.0, 0.851929, 0.0, 0.0, 0.0, 7.856808999999999)",2
2019/04/28/15:03:20.388206,5661,1556456598,375410,gps,0,5,22.3027172,114.1770056,-1.178,"(0.8500840000000001, 0.0, 0.0, 0.0, 0.8500840000000001, 0.0, 0.0, 0.0, 7.7841000000000005)",2
2019/04/28/15:03:21.386509,5662,1556456599,375035,gps,0,5,22.3027168,114.1770051,-1.172,"(0.848241, 0.0, 0.0, 0.0, 0.848241, 0.0, 0.0, 0.0, 7.733961000000001)",2
2019/04/28/15:03:22.391887,5663,1556456600,374661,gps,0,5,22.3027172,114.1770052,-1.244,"(0.848241, 0.0, 0.0, 0.0, 0.848241, 0.0, 0.0, 0.0, 7.717284)",2
2019/04/28/15:03:23.388884,5664,1556456601,374286,gps,0,5,22.3027193,114.1770064,-1.148,"(0.848241, 0.0, 0.0, 0.0, 0.848241, 0.0, 0.0, 0.0, 7.717284)",2
2019/04/28/15:03:24.401927,5665,1556456602,373911,gps,0,5,22.3027275,114.1770108,-1.011,"(0.851929, 0.0, 0.0, 0.0, 0.851929, 0.0, 0.0, 0.0, 7.789681)",2
2019/04/28/15:03:25.394246,5666,1556456603,373537,gps,0,5,22.3027453,114.1770209,-1.189,"(0.851929, 0.0, 0.0, 0.0, 0.851929, 0.0, 0.0, 0.0, 7.828804)",2
2019/04/28/15:03:26.396175,5667,1556456604,373163,gps,0,5,22.3027726,114.177037,-1.163,"(0.8500840000000001, 0.0, 0.0, 0.0, 0.8500840000000001, 0.0, 0.0, 0.0, 7.817615999999999)",2
2019/04/28/15:03:27.393078,5668,1556456605,372788,gps,0,5,22.3028073,114.1770566,-1.02,"(0.8500840000000001, 0.0, 0.0, 0.0, 0.8500840000000001, 0.0, 0.0, 0.0, 7.851204)",2
2019/04/28/15:03:28.396084,5669,1556456606,372414,gps,0,5,22.3028456,114.177078,-1.106,"(0.8798439999999998, 0.0, 0.0, 0.0, 0.8798439999999998, 0.0, 0.0, 0.0, 8.2369)",2
2019/04/28/15:03:29.388683,5670,1556456607,372039,gps,0,5,22.3028829,114.1771043,-1.015,"(0.9177639999999999, 0.0, 0.0, 0.0, 0.9177639999999999, 0.0, 0.0, 0.0, 8.590761)",2
2019/04/28/15:03:30.392419,5671,1556456608,371665,gps,0,5,22.3029152,114.1771372,-0.799,"(0.9409, 0.0, 0.0, 0.0, 0.9409, 0.0, 0.0, 0.0, 8.958048999999999)",2
2019/04/28/15:03:31.395470,5672,1556456609,371289,gps,0,5,22.3029394,114.1771762,-0.425,"(0.982081, 0.0, 0.0, 0.0, 0.982081, 0.0, 0.0, 0.0, 9.517225)",2
2019/04/28/15:03:32.412173,5673,1556456610,370915,gps,0,5,22.3029542,114.1772214,-0.334,"(1.100401, 0.0, 0.0, 0.0, 1.100401, 0.0, 0.0, 0.0, 10.6276)",2
2019/04/28/15:03:33.405987,5674,1556456611,370540,gps,0,5,22.3029555,114.1772734,-0.331,"(1.4520250000000001, 0.0, 0.0, 0.0, 1.4520250000000001, 0.0, 0.0, 0.0, 12.574115999999998)",2
2019/04/28/15:03:34.398888,5675,1556456612,370166,gps,0,5,22.3029422,114.1773285,-0.241,"(2.1579610000000002, 0.0, 0.0, 0.0, 2.1579610000000002, 0.0, 0.0, 0.0, 15.515721000000001)",2
2019/04/28/15:03:35.382478,5676,1556456613,369792,gps,0,5,22.3029204,114.1773883,-0.362,"(3.041536, 0.0, 0.0, 0.0, 3.041536, 0.0, 0.0, 0.0, 19.351201)",2
2019/04/28/15:03:36.386137,5677,1556456614,369418,gps,0,5,22.3028944,114.1774549,-0.451,"(3.912484, 0.0, 0.0, 0.0, 3.912484, 0.0, 0.0, 0.0, 24.1081)",2
2019/04/28/15:03:37.380616,5678,1556456615,369044,gps,0,5,22.3028654,114.1775226,-0.798,"(4.813636, 0.0, 0.0, 0.0, 4.813636, 0.0, 0.0, 0.0, 29.724304)",2
2019/04/28/15:03:38.388777,5679,1556456616,368669,gps,0,5,22.3028341,114.1775901,-0.324,"(5.659641, 0.0, 0.0, 0.0, 5.659641, 0.0, 0.0, 0.0, 36.300625000000004)",2
2019/04/28/15:03:39.381192,5680,1556456617,368293,gps,0,5,22.3028019,114.1776625,-0.166,"(6.589489000000001, 0.0, 0.0, 0.0, 6.589489000000001, 0.0, 0.0, 0.0, 43.930384000000004)",2
2019/04/28/15:03:40.383416,5681,1556456618,367916,gps,0,5,22.3027732,114.1777422,0.436,"(7.750655999999999, 0.0, 0.0, 0.0, 7.750655999999999, 0.0, 0.0, 0.0, 52.157284000000004)",2
2019/04/28/15:03:41.393544,5682,1556456619,367542,gps,0,5,22.3027459,114.1778318,0.407,"(9.162729, 0.0, 0.0, 0.0, 9.162729, 0.0, 0.0, 0.0, 61.544025)",2
2019/04/28/15:03:42.387611,5683,1556456620,367167,gps,0,5,22.302713,114.1779325,0.254,"(10.830681, 0.0, 0.0, 0.0, 10.830681, 0.0, 0.0, 0.0, 69.122596)",2
2019/04/28/15:03:43.414382,5684,1556456621,366790,gps,0,5,22.3026759,114.1780363,0.623,"(11.075584, 0.0, 0.0, 0.0, 11.075584, 0.0, 0.0, 0.0, 70.795396)",2
2019/04/28/15:03:44.424212,5685,1556456622,366416,gps,0,5,22.3026374,114.1781379,0.529,"(10.719076, 0.0, 0.0, 0.0, 10.719076, 0.0, 0.0, 0.0, 69.70580100000001)",2
2019/04/28/15:03:45.389091,5686,1556456623,366038,gps,0,5,22.3026004,114.1782389,2.308,"(10.850436, 0.0, 0.0, 0.0, 10.850436, 0.0, 0.0, 0.0, 74.666881)",2
2019/04/28/15:03:46.427832,5687,1556456624,365663,gps,0,5,22.3025688,114.178334,2.642,"(11.383876, 0.0, 0.0, 0.0, 11.383876, 0.0, 0.0, 0.0, 81.25219599999998)",2
2019/04/28/15:03:47.378525,5688,1556456625,365287,gps,0,5,22.3025419,114.178423,3.047,"(12.510368999999999, 0.0, 0.0, 0.0, 12.510368999999999, 0.0, 0.0, 0.0, 90.421081)",2
2019/04/28/15:03:48.379242,5689,1556456626,364912,gps,0,5,22.3025144,114.1785073,3.116,"(13.965169000000001, 0.0, 0.0, 0.0, 13.965169000000001, 0.0, 0.0, 0.0, 97.97040399999999)",2
2019/04/28/15:03:49.383718,5690,1556456627,364536,gps,0,5,22.3024897,114.1785914,3.571,"(15.155448999999999, 0.0, 0.0, 0.0, 15.155448999999999, 0.0, 0.0, 0.0, 104.59152900000001)",2
2019/04/28/15:03:50.428558,5691,1556456628,364162,gps,0,5,22.3024714,114.1786777,2.993,"(17.106496, 0.0, 0.0, 0.0, 17.106496, 0.0, 0.0, 0.0, 110.607289)",2
2019/04/28/15:03:51.382666,5692,1556456629,363786,gps,0,5,22.3024566,114.1787616,2.905,"(19.219456000000005, 0.0, 0.0, 0.0, 19.219456000000005, 0.0, 0.0, 0.0, 119.44304100000001)",2
2019/04/28/15:03:52.384669,5693,1556456630,363410,gps,0,5,22.3024451,114.1788323,3.053,"(20.430399999999995, 0.0, 0.0, 0.0, 20.430399999999995, 0.0, 0.0, 0.0, 127.26096100000001)",2
2019/04/28/15:03:53.385821,5694,1556456631,363036,gps,0,5,22.3024391,114.1788863,2.796,"(21.141603999999997, 0.0, 0.0, 0.0, 21.141603999999997, 0.0, 0.0, 0.0, 130.279396)",2
2019/04/28/15:03:54.422528,5695,1556456632,362658,gps,0,5,22.3024357,114.1789208,3.26,"(21.949224999999995, 0.0, 0.0, 0.0, 21.949224999999995, 0.0, 0.0, 0.0, 132.296004)",2
2019/04/28/15:03:55.397616,5696,1556456633,362281,gps,0,5,22.3024336,114.1789379,3.592,"(22.743361, 0.0, 0.0, 0.0, 22.743361, 0.0, 0.0, 0.0, 129.5044)",2
2019/04/28/15:03:56.383806,5697,1556456634,361905,gps,0,5,22.3024316,114.1789413,3.118,"(24.591680999999998, 0.0, 0.0, 0.0, 24.591680999999998, 0.0, 0.0, 0.0, 135.18712900000003)",2
2019/04/28/15:03:57.379535,5698,1556456635,361524,gps,0,5,22.3024132,114.1789342,4.309,"(26.122320999999996, 0.0, 0.0, 0.0, 26.122320999999996, 0.0, 0.0, 0.0, 122.81072400000002)",2
