time,.header.seq,.header.stamp.secs,.header.stamp.nsecs,.header.frame_id,.gps_time,.temperatur,.pressure,.Time,.UtcTime.year,.UtcTime.month,.UtcTime.day,.UtcTime.hour,.UtcTime.minute,.UtcTime.second,.UtcTime.millisecond,.Week,.GpsFix,.NumSats,.LLA.x,.LLA.y,.LLA.z,.NedVel.x,.NedVel.y,.NedVel.z,.NedAcc.x,.NedAcc.y,.NedAcc.z,.SpeedAcc,.TimeAcc
2021/06/30/16:10:52.646686,792,1495524016,522294940,gps_link,1179559231.57,19.0058135986,101.218002319,199231.39998,17,5,23,7,20,16,399,1950,3,10,55.3272623,11.3883713,69.522,0.310000002384,-0.20000000298,-0.019999999553,8.70000076294,7.5,15.7199993134,0.576000034809,833342592.0
2021/06/30/16:11:03.614652,793,1495524016,773827815,gps_link,1179559231.82,19.0107192993,101.218002319,199231.599979,17,5,23,7,20,16,599,1950,3,10,55.3272627,11.388371,69.539,0.109999999404,-0.0900000035763,-0.280000001192,8.72558879852,7.52205944061,15.732000351,0.719999969006,833342592.0
2021/06/30/16:11:03.979247,794,1495524017,19981065,gps_link,1179559232.07,19.01197052,101.218002319,199231.799979,17,5,23,7,20,16,799,1950,3,10,55.3272628,11.3883708,69.521,0.0500000007451,-0.0799999982119,-0.00999999977648,8.72558879852,7.52205944061,15.75,0.496000021696,833342592.0
2021/06/30/16:11:04.256319,795,1495524017,274253732,gps_link,1179559232.32,19.015411377,101.23400116,199232.199978,17,5,23,7,20,17,199,1950,3,10,55.3272628,11.3883708,69.491,-0.109999999404,0.140000000596,-0.10000000149,8.75117588043,7.54411792755,15.7919998169,0.600000023842,833342592.0
2021/06/30/16:11:04.430330,796,1495524017,518179357,gps_link,1179559232.57,19.0194511414,101.222007751,199232.399978,17,5,23,7,20,17,399,1950,3,10,55.3272627,11.3883711,69.501,-0.019999999553,-0.0399999991059,-0.270000010729,8.75117588043,7.54411792755,15.8099994659,0.759999990463,833342592.0
2021/06/30/16:11:04.612660,797,1495524017,773176440,gps_link,1179559232.82,19.0200500488,101.222007751,199232.599977,17,5,23,7,20,17,599,1950,3,10,55.3272629,11.3883712,69.487,0.119999997318,0.0299999993294,-0.0900000035763,8.77676391602,7.56617641449,15.8339996338,0.65600001812,833342592.0
2021/06/30/16:11:04.859565,798,1495524018,19403065,gps_link,1179559233.07,19.0227680206,101.222007751,199232.799977,17,5,23,7,20,17,799,1950,3,10,55.3272631,11.3883713,69.505,0.0299999993294,-0.0399999991059,-0.310000002384,8.77676391602,7.56617641449,15.8519992828,0.744000017643,833342592.0
2021/06/30/16:11:05.139718,799,1495524018,273897357,gps_link,1179559233.32,19.0278072357,101.23400116,199233.199976,17,5,23,7,20,18,199,1950,3,10,55.3272636,11.388371,69.613,0.109999999404,0.019999999553,-0.569999992847,8.80235290527,7.58823537827,15.8939990997,0.752000033855,833342592.0
2021/06/30/16:11:05.359191,800,1495524018,518771440,gps_link,1179559233.57,19.0313339233,101.257003784,199233.399976,17,5,23,7,20,18,399,1950,3,10,55.3272636,11.3883712,69.678,-0.15000000596,-0.00999999977648,-0.52999997139,8.80235290527,7.58823537827,15.9060001373,0.736000001431,833342592.0
2021/06/30/16:11:05.630960,801,1495524018,775641274,gps_link,1179559233.82,19.0372333527,101.273002625,199233.599975,17,5,23,7,20,18,599,1950,3,10,55.3272635,11.3883709,69.729,-0.0599999986589,-0.180000007153,-0.449999988079,8.82794094086,7.6102938652,15.9300003052,0.728000044823,833342592.0
2021/06/30/16:11:05.870975,802,1495524019,21963232,gps_link,1179559234.07,19.0416870117,101.261001587,199233.799975,17,5,23,7,20,18,799,1950,3,10,55.3272635,11.3883704,69.756,-0.00999999977648,-0.209999993443,-0.379999995232,8.82794094086,7.6102938652,15.9479999542,0.680000007153,833342592.0
2021/06/30/16:11:06.115575,803,1495524019,272962357,gps_link,1179559234.32,19.0429878235,101.227005005,199234.199974,17,5,23,7,20,19,199,1950,3,10,55.3272635,11.3883706,69.912,0.180000007153,0.0299999993294,-1.19000005722,8.85352897644,7.63235282898,16.0020008087,0.824000000954,833342592.0
2021/06/30/16:11:06.356995,804,1495524019,517249732,gps_link,1179559234.57,19.042093277,101.20400238,199234.399974,17,5,23,7,20,19,399,1950,3,10,55.327264,11.3883709,70.149,0.239999994636,0.10000000149,-1.40999996662,8.85352897644,7.63235282898,16.0260009766,0.791999995708,833342592.0
2021/06/30/16:11:06.643913,805,1495524019,773561149,gps_link,1179559234.82,19.049955368,101.20400238,199234.599973,17,5,23,7,20,19,599,1950,3,10,55.3272644,11.3883711,70.438,-0.0900000035763,-0.019999999553,-1.70000004768,8.85352897644,7.63235282898,16.0380001068,0.815999984741,833342592.0
2021/06/30/16:11:06.876175,806,1495524020,19275524,gps_link,1179559235.07,19.0536651611,101.196006775,199234.799973,17,5,23,7,20,19,799,1950,3,10,55.3272642,11.388371,70.814,-0.319999992847,-0.119999997318,-2.17000007629,8.85352897644,7.63235282898,16.0559997559,0.824000000954,833342592.0
2021/06/30/16:11:07.139370,807,1495524020,272911816,gps_link,1179559235.32,19.0603103638,101.185005188,199235.199972,17,5,23,7,20,20,199,1950,3,10,55.3272639,11.3883709,71.902,-0.109999999404,0.140000000596,-3.33999991417,8.8791179657,7.65441131592,16.0979995728,0.839999973774,833342592.0
2021/06/30/16:11:07.493245,808,1495524020,517601232,gps_link,1179559235.57,19.0635757446,101.17300415,199235.399972,17,5,23,7,20,20,399,1950,3,10,55.3272637,11.3883711,72.612,-0.180000007153,-0.00999999977648,-3.74000000954,8.8791179657,7.65441131592,16.1160011292,0.839999973774,833342592.0
2021/06/30/16:11:07.619817,809,1495524020,779416982,gps_link,1179559235.82,19.0644302368,101.17300415,199235.599971,17,5,23,7,20,20,599,1950,3,10,55.3272634,11.3883714,73.338,-0.340000003576,0.10000000149,-3.78999996185,8.8791179657,7.65441131592,16.1399993896,0.824000000954,833342592.0
2021/06/30/16:11:08.284234,810,1495524021,18998482,gps_link,1179559236.07,19.0725269318,101.161003113,199235.799971,17,5,23,7,20,20,799,1950,3,10,55.3272631,11.3883719,74.042,-0.170000001788,0.20000000298,-3.54999995232,8.8791179657,7.65441131592,16.158000946,0.824000000954,833342592.0
2021/06/30/16:11:09.704583,811,1495524021,274227274,gps_link,1179559236.32,19.0772895813,101.143005371,199236.19997,17,5,23,7,20,21,199,1950,3,10,55.3272626,11.3883733,75.242,-0.15000000596,0.40000000596,-2.91000008583,8.8791179657,7.65441131592,16.2059993744,0.791999995708,833342592.0
2021/06/30/16:11:09.796672,812,1495524021,520070274,gps_link,1179559236.57,19.078950882,101.143005371,199236.399969,17,5,23,7,20,21,399,1950,3,10,55.3272625,11.3883744,75.779,-0.0599999986589,0.219999998808,-2.81999993324,8.8791179657,7.65441131592,16.2239990234,0.800000011921,833342592.0
2021/06/30/16:11:10.110620,813,1495524021,776020024,gps_link,1179559236.82,19.0822181702,101.143005371,199236.599969,17,5,23,7,20,21,599,1950,3,10,55.3272623,11.388375,76.252,-0.0799999982119,0.129999995232,-2.61999988556,8.90470600128,7.67647075653,16.2420005798,0.791999995708,833342592.0
2021/06/30/16:11:10.458206,814,1495524022,19955358,gps_link,1179559237.07,19.0879096985,101.143005371,199236.799969,17,5,23,7,20,21,799,1950,3,10,55.327262,11.3883754,76.698,-0.239999994636,0.0599999986589,-2.25999999046,8.90470600128,7.67647075653,16.2600002289,0.800000011921,833342592.0
2021/06/30/16:11:10.908388,815,1495524022,277572316,gps_link,1179559237.32,19.0906505585,101.131004333,199237.199968,17,5,23,7,20,22,199,1950,3,10,55.3272619,11.3883761,77.301,0.109999999404,-0.170000001788,-1.19000005722,8.90470600128,7.67647075653,16.2960014343,0.776000022888,833342592.0
2021/06/30/16:11:11.533030,816,1495524022,518074899,gps_link,1179559237.57,19.0929870605,101.119003296,199237.399967,17,5,23,7,20,22,399,1950,3,10,55.3272622,11.3883759,77.463,0.10000000149,-0.070000000298,-0.860000014305,8.90470600128,7.67647075653,16.3140010834,0.791999995708,833342592.0
2021/06/30/16:11:11.617587,817,1495524022,774211733,gps_link,1179559237.82,19.0947589874,101.147003174,199237.599967,17,5,23,7,20,22,599,1950,3,10,55.3272623,11.3883754,77.583,0.0399999991059,-0.239999994636,-0.829999983311,8.93029403687,7.69852924347,16.3439998627,0.791999995708,833342592.0
2021/06/30/16:11:12.264802,818,1495524023,21869358,gps_link,1179559238.07,19.0967502594,101.135002136,199237.799967,17,5,23,7,20,22,799,1950,3,10,55.3272626,11.3883751,77.57,0.180000007153,-0.0500000007451,-0.019999999553,8.93029403687,7.69852924347,16.3680000305,0.551999986172,833342592.0
2021/06/30/16:11:12.803373,819,1495524023,275209108,gps_link,1179559238.32,19.0995540619,101.124008179,199238.199966,17,5,23,7,20,23,199,1950,3,10,55.3272635,11.3883743,77.486,0.230000004172,-0.230000004172,0.019999999553,8.95588207245,7.72058773041,16.4160003662,0.480000019073,833342592.0
2021/06/30/16:11:13.291823,820,1495524023,518310399,gps_link,1179559238.57,19.1039218903,101.147003174,199238.399965,17,5,23,7,20,23,399,1950,3,10,55.327264,11.3883739,77.433,0.140000000596,-0.119999997318,0.0799999982119,8.95588207245,7.72058773041,16.4400005341,0.568000018597,833342592.0
2021/06/30/16:11:13.457868,821,1495524023,773773816,gps_link,1179559238.82,19.1069488525,101.135002136,199238.599965,17,5,23,7,20,23,599,1950,3,10,55.3272642,11.3883732,77.352,0.00999999977648,-0.330000013113,0.239999994636,8.95588207245,7.72058773041,16.4640007019,0.551999986172,833342592.0
2021/06/30/16:11:14.352489,822,1495524024,21266024,gps_link,1179559239.07,19.1147880554,101.147003174,199238.799964,17,5,23,7,20,23,799,1950,3,10,55.3272643,11.3883726,77.304,0.070000000298,-0.119999997318,0.0,8.95588207245,7.72058773041,16.482000351,0.440000027418,833342592.0
2021/06/30/16:11:14.780616,823,1495524024,274487358,gps_link,1179559239.32,19.1168556213,101.151008606,199239.199964,17,5,23,7,20,24,199,1950,3,10,55.327265,11.3883717,77.308,0.230000004172,-0.209999993443,-0.40000000596,8.98147010803,7.74264717102,16.517999649,0.648000001907,833342592.0
2021/06/30/16:11:15.281155,824,1495524024,517503358,gps_link,1179559239.57,19.1220531464,101.135002136,199239.399963,17,5,23,7,20,24,399,1950,3,10,55.3272647,11.3883712,77.342,-0.300000011921,-0.170000001788,-0.589999973774,8.98147010803,7.74264717102,16.517999649,0.696000039577,833342592.0
2021/06/30/16:11:15.781545,825,1495524024,773293525,gps_link,1179559239.82,19.1228904724,101.151008606,199239.599963,17,5,23,7,20,24,599,1950,3,10,55.3272639,11.3883705,77.337,-0.5,-0.340000003576,-0.0299999993294,8.95588207245,7.72058773041,16.517999649,0.504000008106,833342592.0
2021/06/30/16:11:16.128618,826,1495524025,21618441,gps_link,1179559240.07,19.1269779205,101.139007568,199239.799962,17,5,23,7,20,24,799,1950,3,10,55.3272627,11.3883693,77.324,-0.759999990463,-0.479999989271,-0.180000007153,8.95588207245,7.72058773041,16.5359992981,0.551999986172,833342592.0
2021/06/30/16:11:16.547531,827,1495524025,275840066,gps_link,1179559240.32,19.1272335052,101.139007568,199240.199962,17,5,23,7,20,25,199,1950,3,10,55.3272594,11.3883666,77.335,-1.09000003338,-0.449999988079,-0.159999996424,8.98147010803,7.74264717102,16.5839996338,0.592000007629,833342592.0
2021/06/30/16:11:17.055986,828,1495524025,519366941,gps_link,1179559240.57,19.129743576,101.143005371,199240.399961,17,5,23,7,20,25,399,1950,3,10,55.3272567,11.3883651,77.336,-1.65999996662,-0.579999983311,-0.259999990463,8.98147010803,7.74264717102,16.6079998016,0.615999996662,833342592.0
2021/06/30/16:11:17.526831,829,1495524025,777254025,gps_link,1179559240.82,19.1366882324,101.139007568,199240.599961,17,5,23,7,20,25,599,1950,3,10,55.3272533,11.3883635,77.195,-2.0,-0.629999995232,0.0500000007451,9.00705909729,7.76470565796,16.6319999695,0.624000012875,833342592.0
2021/06/30/16:11:17.798912,830,1495524026,24875483,gps_link,1179559241.07,19.1358108521,101.132003784,199240.79996,17,5,23,7,20,25,799,1950,3,10,55.3272497,11.388362,77.227,-1.83000004292,-0.40000000596,-0.460000008345,9.00705909729,7.76470565796,16.6680011749,0.67199999094,833342592.0
2021/06/30/16:11:18.537257,831,1495524026,274664233,gps_link,1179559241.32,19.1362419128,101.143005371,199241.199959,17,5,23,7,20,26,199,1950,3,10,55.3272417,11.3883593,77.168,-2.3599998951,-0.639999985695,-0.300000011921,9.05823516846,7.80882310867,16.7459983826,0.67199999094,833342592.0
2021/06/30/16:11:18.889060,832,1495524026,521774400,gps_link,1179559241.57,19.1420059204,101.143005371,199241.399959,17,5,23,7,20,26,399,1950,3,10,55.3272383,11.388358,77.177,-1.57000005245,-0.300000011921,-0.119999997318,9.08382320404,7.83088207245,16.7940006256,0.67199999094,833342592.0
2021/06/30/16:11:20.143877,833,1495524026,772850775,gps_link,1179559241.82,19.1474056244,101.132003784,199241.599959,17,5,23,7,20,26,599,1950,3,10,55.3272354,11.3883572,77.054,-1.85000002384,-0.25,0.0900000035763,9.10941123962,7.85294055939,16.841999054,0.67199999094,833342592.0
2021/06/30/16:11:20.423032,834,1495524027,20849900,gps_link,1179559242.07,19.1481590271,101.132003784,199241.799958,17,5,23,7,20,26,799,1950,3,10,55.3272325,11.3883568,77.068,-1.51999998093,-0.0500000007451,-0.289999991655,9.10941123962,7.85294055939,16.8839988708,0.696000039577,833342592.0
2021/06/30/16:11:20.853137,835,1495524027,274814775,gps_link,1179559242.32,19.1494255066,101.132003784,199242.199957,17,5,23,7,20,27,199,1950,3,10,55.3272282,11.3883576,77.087,-1.23000001907,0.230000004172,-0.280000001192,9.16058731079,7.89705848694,16.968000412,0.688000023365,833342592.0
2021/06/30/16:11:21.403796,836,1495524027,520795483,gps_link,1179559242.57,19.15184021,101.143005371,199242.399957,17,5,23,7,20,27,399,1950,3,10,55.3272256,11.3883583,77.116,-1.65999996662,0.159999996424,-0.439999997616,9.18617630005,7.91911697388,17.0040016174,0.719999969006,833342592.0
2021/06/30/16:11:21.536474,837,1495524027,777062567,gps_link,1179559242.82,19.1575489044,101.143005371,199242.599957,17,5,23,7,20,27,599,1950,3,10,55.327224,11.3883591,77.148,-0.419999986887,0.270000010729,-0.449999988079,9.18617630005,7.91911697388,17.0520000458,0.784000039101,833342592.0
2021/06/30/16:11:21.840561,838,1495524028,20360983,gps_link,1179559243.07,19.161491394,101.143005371,199242.799956,17,5,23,7,20,27,799,1950,3,10,55.3272227,11.3883601,77.162,-1.00999999046,0.319999992847,-0.379999995232,9.21176433563,7.94117641449,17.0939998627,0.719999969006,833342592.0
2021/06/30/16:11:22.580000,839,1495524028,277722900,gps_link,1179559243.32,19.1634979248,101.147003174,199243.199955,17,5,23,7,20,28,199,1950,3,10,55.3272199,11.3883621,77.303,-0.939999997616,0.639999985695,-0.699999988079,9.26294136047,7.9852938652,17.172000885,0.703999996185,833342592.0
2021/06/30/16:11:22.948834,840,1495524028,519913525,gps_link,1179559243.57,19.1647129059,101.136001587,199243.399955,17,5,23,7,20,28,399,1950,3,10,55.3272187,11.3883637,77.332,-0.660000026226,0.430000007153,-0.569999992847,9.28852939606,8.00735282898,17.2140007019,0.752000033855,833342592.0
2021/06/30/16:11:23.074484,841,1495524028,777741233,gps_link,1179559243.82,19.1659374237,101.140007019,199243.599955,17,5,23,7,20,28,599,1950,3,10,55.3272182,11.3883654,77.396,-0.180000007153,0.620000004768,-0.419999986887,9.28852939606,8.00735282898,17.25,0.584000051022,833342592.0
2021/06/30/16:11:23.157822,842,1495524029,21552983,gps_link,1179559244.07,19.1675758362,101.124008179,199243.799954,17,5,23,7,20,28,799,1950,3,10,55.327218,11.3883667,77.394,-0.34999999404,0.189999997616,-0.379999995232,9.31411743164,8.02941131592,17.2859992981,0.744000017643,833342592.0
2021/06/30/16:11:23.241068,843,1495524029,273197275,gps_link,1179559244.32,19.1697502136,101.136001587,199244.199953,17,5,23,7,20,29,199,1950,3,10,55.3272172,11.3883689,77.481,-0.330000013113,0.389999985695,-0.439999997616,9.36529350281,8.07352924347,17.3579998016,0.67199999094,833342592.0
2021/06/30/16:11:23.336169,844,1495524029,518545025,gps_link,1179559244.57,19.1676387787,101.136001587,199244.399953,17,5,23,7,20,29,399,1950,3,10,55.3272171,11.3883703,77.453,0.0,0.52999997139,-0.389999985695,9.36529350281,8.07352924347,17.3819999695,0.544000029564,833342592.0
2021/06/30/16:11:23.461044,845,1495524029,777410525,gps_link,1179559244.82,19.1719512939,101.124008179,199244.599952,17,5,23,7,20,29,599,1950,3,10,55.3272175,11.3883721,77.507,0.25,0.519999980927,-0.379999995232,9.39088249207,8.09558868408,17.4060001373,0.551999986172,833342592.0
2021/06/30/16:11:23.577242,846,1495524030,23870733,gps_link,1179559245.07,19.1759223938,101.128005981,199244.799952,17,5,23,7,20,29,799,1950,3,10,55.3272181,11.3883734,77.531,0.180000007153,0.34999999404,-0.479999989271,9.39088249207,8.09558868408,17.4300003052,0.663999974728,833342592.0
2021/06/30/16:11:23.702850,847,1495524030,276460192,gps_link,1179559245.32,19.1830406189,101.140007019,199245.199951,17,5,23,7,20,30,199,1950,3,10,55.3272179,11.3883759,77.642,0.0,0.370000004768,-0.959999978542,9.41647052765,8.11764717102,17.4600009918,0.752000033855,833342592.0
2021/06/30/16:11:23.777309,848,1495524030,521407317,gps_link,1179559245.57,19.18683815,101.140007019,199245.399951,17,5,23,7,20,30,399,1950,3,10,55.3272179,11.3883771,77.73,-0.0900000035763,0.370000004768,-0.550000011921,9.41647052765,8.11764717102,17.4780006409,0.696000039577,833342592.0
2021/06/30/16:11:23.912585,849,1495524030,777153442,gps_link,1179559245.82,19.1875648499,101.140007019,199245.59995,17,5,23,7,20,30,599,1950,3,10,55.3272186,11.3883785,77.688,0.660000026226,0.490000009537,-0.289999991655,9.44205856323,8.13970565796,17.5020008087,0.576000034809,833342592.0
2021/06/30/16:11:23.987868,850,1495524031,31638984,gps_link,1179559246.07,19.1924057007,101.133003235,199245.79995,17,5,23,7,20,30,799,1950,3,10,55.3272191,11.3883799,77.738,-0.25,0.310000002384,-0.629999995232,9.44205856323,8.13970565796,17.5260009766,0.768000006676,833342592.0
2021/06/30/16:11:24.079888,851,1495524031,277052859,gps_link,1179559246.32,19.1952552795,101.156005859,199246.199949,17,5,23,7,20,31,199,1950,3,10,55.3272204,11.3883811,77.783,0.280000001192,0.0599999986589,-0.310000002384,9.46764755249,8.1617641449,17.5739994049,0.688000023365,833342592.0
2021/06/30/16:11:24.507290,852,1495524031,520611192,gps_link,1179559246.57,19.1962814331,101.140007019,199246.399949,17,5,23,7,20,31,399,1950,3,10,55.3272217,11.3883813,77.637,0.610000014305,0.0299999993294,0.340000003576,9.49323558807,8.18382263184,17.5979995728,0.784000039101,833342592.0
2021/06/30/16:11:24.599182,853,1495524031,774704984,gps_link,1179559246.82,19.1962413788,101.133003235,199246.599948,17,5,23,7,20,31,599,1950,3,10,55.3272231,11.3883816,77.65,0.689999997616,0.0900000035763,-0.319999992847,9.49323558807,8.18382263184,17.6219997406,0.60799998045,833342592.0
2021/06/30/16:11:24.693986,854,1495524032,19251525,gps_link,1179559247.07,19.1997852325,101.144004822,199246.799948,17,5,23,7,20,31,799,1950,3,10,55.3272243,11.3883816,77.643,0.319999992847,-0.119999997318,-0.0799999982119,9.49323558807,8.18382263184,17.6339988708,0.615999996662,833342592.0
2021/06/30/16:11:24.852621,855,1495524032,275268275,gps_link,1179559247.32,19.2051849365,101.121002197,199247.199947,17,5,23,7,20,32,199,1950,3,10,55.3272257,11.3883806,77.502,0.00999999977648,-0.129999995232,0.0900000035763,9.49323558807,8.18382263184,17.6280002594,0.576000034809,833342592.0
2021/06/30/16:11:24.944229,856,1495524032,521773359,gps_link,1179559247.57,19.206861496,101.137001038,199247.399947,17,5,23,7,20,32,399,1950,3,10,55.3272259,11.3883804,77.481,-0.0299999993294,-0.109999999404,-0.10000000149,9.49323558807,8.18382263184,17.6219997406,0.60799998045,833342592.0
2021/06/30/16:11:25.038416,857,1495524032,776425275,gps_link,1179559247.82,19.2069015503,101.133003235,199247.599946,17,5,23,7,20,32,599,1950,3,10,55.3272261,11.3883804,77.475,0.0900000035763,0.00999999977648,-0.159999996424,9.49323558807,8.18382263184,17.6219997406,0.719999969006,833342592.0
2021/06/30/16:11:25.155056,858,1495524033,19620442,gps_link,1179559248.07,19.2091712952,101.121002197,199247.799946,17,5,23,7,20,32,799,1950,3,10,55.3272262,11.3883803,77.454,-0.180000007153,-0.180000007153,0.0,9.49323558807,8.18382263184,17.6280002594,0.463999986649,833342592.0
2021/06/30/16:11:25.237823,859,1495524033,278605817,gps_link,1179559248.32,19.2133998871,101.137001038,199248.199945,17,5,23,7,20,33,199,1950,3,10,55.3272265,11.3883784,77.516,-0.129999995232,-0.340000003576,-0.439999997616,9.49323558807,8.18382263184,17.6219997406,0.663999974728,833342592.0
2021/06/30/16:11:25.335325,860,1495524033,517713192,gps_link,1179559248.57,19.2135467529,101.125007629,199248.399945,17,5,23,7,20,33,399,1950,3,10,55.3272264,11.3883774,77.461,-0.259999990463,-0.289999991655,-0.0799999982119,9.46764755249,8.1617641449,17.6280002594,0.504000008106,833342592.0
2021/06/30/16:11:25.529203,861,1495524033,775819734,gps_link,1179559248.82,19.2185955048,101.137001038,199248.599944,17,5,23,7,20,33,599,1950,3,10,55.327226,11.3883769,77.501,-0.310000002384,-0.140000000596,-0.300000011921,9.46764755249,8.1617641449,17.6339988708,0.696000039577,833342592.0
2021/06/30/16:11:25.804198,862,1495524034,18514234,gps_link,1179559249.07,19.2168807983,101.125007629,199248.799944,17,5,23,7,20,33,799,1950,3,10,55.3272255,11.3883762,77.51,-0.370000004768,-0.319999992847,-0.219999998808,9.46764755249,8.1617641449,17.6339988708,0.584000051022,833342592.0
2021/06/30/16:11:26.128912,863,1495524034,273285692,gps_link,1179559249.32,19.2187957764,101.137001038,199249.199943,17,5,23,7,20,34,199,1950,3,10,55.327224,11.3883761,77.436,-0.379999995232,0.330000013113,-0.25,9.46764755249,8.1617641449,17.6219997406,0.576000034809,833342592.0
2021/06/30/16:11:26.599302,864,1495524034,518409234,gps_link,1179559249.57,19.2214660645,101.125007629,199249.399943,17,5,23,7,20,34,399,1950,3,10,55.3272232,11.3883765,77.412,-0.610000014305,-0.10000000149,-0.00999999977648,9.46764755249,8.1617641449,17.6160011292,0.551999986172,833342592.0
2021/06/30/16:11:26.953253,865,1495524034,774233359,gps_link,1179559249.82,19.2227230072,101.137001038,199249.599942,17,5,23,7,20,34,599,1950,3,10,55.3272224,11.3883765,77.377,-0.540000021458,0.0900000035763,-0.0799999982119,9.44205856323,8.13970565796,17.6100006104,0.568000018597,833342592.0
2021/06/30/16:11:27.212439,866,1495524035,20215401,gps_link,1179559250.07,19.2238750458,101.129005432,199249.799942,17,5,23,7,20,34,799,1950,3,10,55.3272217,11.3883769,77.315,-0.439999997616,0.140000000596,0.140000000596,9.44205856323,8.13970565796,17.6040000916,0.600000023842,833342592.0
2021/06/30/16:11:27.383590,867,1495524035,274430151,gps_link,1179559250.32,19.2284317017,101.125007629,199250.199941,17,5,23,7,20,35,199,1950,3,10,55.32722,11.3883784,77.207,-0.34999999404,0.34999999404,-0.0500000007451,9.44205856323,8.13970565796,17.6100006104,0.584000051022,833342592.0
2021/06/30/16:11:27.927135,868,1495524035,522267276,gps_link,1179559250.57,19.2317752838,101.14100647,199250.399941,17,5,23,7,20,35,399,1950,3,10,55.3272196,11.3883793,77.204,-0.330000013113,0.209999993443,-0.219999998808,9.44205856323,8.13970565796,17.6160011292,0.680000007153,833342592.0
2021/06/30/16:11:28.050096,869,1495524035,778448901,gps_link,1179559250.82,19.2342796326,101.14100647,199250.59994,17,5,23,7,20,35,599,1950,3,10,55.327219,11.3883801,77.219,-0.449999988079,0.319999992847,-0.5,9.46764755249,8.1617641449,17.6280002594,0.688000023365,833342592.0
2021/06/30/16:11:28.656547,870,1495524036,18513776,gps_link,1179559251.07,19.2364444733,101.14100647,199250.79994,17,5,23,7,20,35,799,1950,3,10,55.3272182,11.3883809,77.153,-0.649999976158,0.270000010729,-0.0799999982119,9.46764755249,8.1617641449,17.6399993896,0.6400000453,833342592.0
2021/06/30/16:11:29.118852,871,1495524036,273316609,gps_link,1179559251.32,19.2369194031,101.14100647,199251.199939,17,5,23,7,20,36,199,1950,3,10,55.3272177,11.3883824,77.101,0.0599999986589,0.119999997318,-0.140000000596,9.46764755249,8.1617641449,17.658000946,0.624000012875,833342592.0
2021/06/30/16:11:29.486964,872,1495524036,526206609,gps_link,1179559251.57,19.2342643738,101.129005432,199251.399939,17,5,23,7,20,36,399,1950,3,10,55.327218,11.3883832,77.073,0.180000007153,0.340000003576,-0.25,9.46764755249,8.1617641449,17.6639995575,0.536000013351,833342592.0
2021/06/30/16:11:30.193102,873,1495524036,775798359,gps_link,1179559251.82,19.2339038849,101.129005432,199251.599938,17,5,23,7,20,36,599,1950,3,10,55.3272185,11.3883842,77.105,0.34999999404,0.219999998808,-0.330000013113,9.49323558807,8.18382263184,17.6760005951,0.632000029087,833342592.0
2021/06/30/16:11:30.504640,874,1495524037,19686859,gps_link,1179559252.07,19.236492157,101.129005432,199251.799938,17,5,23,7,20,36,799,1950,3,10,55.3272186,11.3883849,77.125,-0.230000004172,0.159999996424,-0.490000009537,9.49323558807,8.18382263184,17.6879997253,0.736000001431,833342592.0
2021/06/30/16:11:30.992252,875,1495524037,277298943,gps_link,1179559252.32,19.2391319275,101.129005432,199252.199937,17,5,23,7,20,37,199,1950,3,10,55.3272189,11.3883858,77.257,0.0399999991059,0.140000000596,-0.550000011921,9.49323558807,8.18382263184,17.7119998932,0.719999969006,833342592.0
2021/06/30/16:11:31.505376,876,1495524037,520294651,gps_link,1179559252.57,19.2400131226,101.14100647,199252.399937,17,5,23,7,20,37,399,1950,3,10,55.3272195,11.3883861,77.279,0.620000004768,0.00999999977648,-0.34999999404,9.49323558807,8.18382263184,17.718000412,0.65600001812,833342592.0
2021/06/30/16:11:31.829510,877,1495524037,777020734,gps_link,1179559252.82,19.2446136475,101.14100647,199252.599936,17,5,23,7,20,37,599,1950,3,10,55.3272204,11.3883865,77.313,0.360000014305,0.180000007153,-0.519999980927,9.51882362366,8.20588207245,17.7299995422,0.67199999094,833342592.0
2021/06/30/16:11:32.489187,878,1495524038,17880068,gps_link,1179559253.07,19.249294281,101.133003235,199252.799936,17,5,23,7,20,37,799,1950,3,10,55.3272211,11.3883869,77.325,0.40000000596,0.0,-0.180000007153,9.51882362366,8.20588207245,17.736000061,0.632000029087,833342592.0
2021/06/30/16:11:33.010047,879,1495524038,273982234,gps_link,1179559253.32,19.2470531464,101.133003235,199253.199935,17,5,23,7,20,38,199,1950,3,10,55.3272223,11.3883868,77.418,0.280000001192,-0.159999996424,-0.620000004768,9.51882362366,8.20588207245,17.7540016174,0.696000039577,833342592.0
2021/06/30/16:11:33.441910,880,1495524038,526559901,gps_link,1179559253.57,19.2507953644,101.145004272,199253.399934,17,5,23,7,20,38,399,1950,3,10,55.3272226,11.3883863,77.403,0.019999999553,-0.170000001788,-0.52999997139,9.51882362366,8.20588207245,17.7659988403,0.696000039577,833342592.0
2021/06/30/16:11:33.767348,881,1495524038,773517485,gps_link,1179559253.82,19.2531871796,101.133003235,199253.599934,17,5,23,7,20,38,599,1950,3,10,55.3272223,11.3883858,77.449,-0.310000002384,-0.140000000596,-0.40000000596,9.51882362366,8.20588207245,17.7779998779,0.712000012398,833342592.0
2021/06/30/16:11:33.886125,882,1495524039,17646026,gps_link,1179559254.07,19.2558994293,101.138008118,199253.799934,17,5,23,7,20,38,799,1950,3,10,55.327222,11.3883851,77.498,-0.0299999993294,-0.300000011921,-0.560000002384,9.51882362366,8.20588207245,17.7899990082,0.663999974728,833342592.0
2021/06/30/16:11:34.538806,883,1495524039,275190860,gps_link,1179559254.32,19.2559547424,101.145004272,199254.199933,17,5,23,7,20,39,199,1950,3,10,55.3272219,11.388383,77.52,-0.15000000596,-0.330000013113,-0.370000004768,9.54441165924,8.22794055939,17.7960014343,0.592000007629,833342592.0
2021/06/30/16:11:35.067272,884,1495524039,522040068,gps_link,1179559254.57,19.2566833496,101.145004272,199254.399932,17,5,23,7,20,39,399,1950,3,10,55.3272217,11.3883817,77.515,-0.20000000298,-0.460000008345,-0.330000013113,9.54441165924,8.22794055939,17.8020000458,0.536000013351,833342592.0
2021/06/30/16:11:35.615815,885,1495524039,775638193,gps_link,1179559254.82,19.2608451843,101.138008118,199254.599932,17,5,23,7,20,39,599,1950,3,10,55.3272214,11.3883809,77.617,-0.219999998808,-0.140000000596,-0.670000016689,9.54441165924,8.22794055939,17.7960014343,0.712000012398,833342592.0
2021/06/30/16:11:35.876780,886,1495524040,19463776,gps_link,1179559255.07,19.2631568909,101.133003235,199254.799932,17,5,23,7,20,39,799,1950,3,10,55.3272211,11.3883805,77.687,-0.159999996424,-0.15000000596,-0.479999989271,9.51882362366,8.20588207245,17.7840003967,0.680000007153,833342592.0
2021/06/30/16:11:36.431166,887,1495524040,277808193,gps_link,1179559255.32,19.259967804,101.149002075,199255.199931,17,5,23,7,20,40,199,1950,3,10,55.3272207,11.3883805,77.667,-0.239999994636,0.0,-0.370000004768,9.51882362366,8.20588207245,17.7659988403,0.663999974728,833342592.0
2021/06/30/16:11:36.884936,888,1495524040,523967776,gps_link,1179559255.57,19.2582111359,101.114006042,199255.39993,17,5,23,7,20,40,399,1950,3,10,55.3272202,11.3883804,77.706,-0.330000013113,-0.109999999404,-0.52999997139,9.51882362366,8.20588207245,17.7479991913,0.65600001812,833342592.0
2021/06/30/16:11:37.249246,889,1495524040,780739943,gps_link,1179559255.82,19.2620563507,101.14200592,199255.59993,17,5,23,7,20,40,599,1950,3,10,55.3272195,11.3883804,77.771,-0.449999988079,0.019999999553,-0.660000026226,9.49323558807,8.18382263184,17.7299995422,0.65600001812,833342592.0
2021/06/30/16:11:37.713105,890,1495524041,18898068,gps_link,1179559256.07,19.2628860474,101.12600708,199255.79993,17,5,23,7,20,40,799,1950,3,10,55.327219,11.3883807,77.779,-0.280000001192,0.159999996424,-0.340000003576,9.49323558807,8.18382263184,17.7119998932,0.615999996662,833342592.0
2021/06/30/16:11:38.422426,891,1495524041,276166776,gps_link,1179559256.32,19.2628898621,101.149002075,199256.199929,17,5,23,7,20,41,199,1950,3,10,55.3272179,11.3883817,77.866,-0.239999994636,0.239999994636,-0.509999990463,9.46764755249,8.1617641449,17.6879997253,0.65600001812,833342592.0
2021/06/30/16:11:38.681802,892,1495524041,520439152,gps_link,1179559256.57,19.2676315308,101.130004883,199256.399928,17,5,23,7,20,41,399,1950,3,10,55.3272175,11.3883824,77.879,-0.25,0.15000000596,-0.389999985695,9.46764755249,8.1617641449,17.6760005951,0.65600001812,833342592.0
2021/06/30/16:11:39.302148,893,1495524041,776613110,gps_link,1179559256.82,19.2715129852,101.114006042,199256.599928,17,5,23,7,20,41,599,1950,3,10,55.3272169,11.388383,77.871,-0.409999996424,0.209999993443,-0.289999991655,9.46764755249,8.1617641449,17.6639995575,0.600000023842,833342592.0
2021/06/30/16:11:39.855870,894,1495524042,20186443,gps_link,1179559257.07,19.2657241821,101.14200592,199256.799928,17,5,23,7,20,41,799,1950,3,10,55.3272165,11.3883838,77.875,0.0,0.25,-0.189999997616,9.44205856323,8.13970565796,17.6459999084,0.536000013351,833342592.0
2021/06/30/16:11:40.342555,895,1495524042,275317277,gps_link,1179559257.32,19.2704429626,101.130004883,199257.199927,17,5,23,7,20,42,199,1950,3,10,55.3272165,11.3883859,77.824,0.0799999982119,0.370000004768,-0.25,9.44205856323,8.13970565796,17.6100006104,0.496000021696,833342592.0
2021/06/30/16:11:40.507744,896,1495524042,518828777,gps_link,1179559257.57,19.2781867981,101.14200592,199257.399926,17,5,23,7,20,42,399,1950,3,10,55.3272165,11.388387,77.832,-0.0299999993294,0.280000001192,-0.289999991655,9.41647052765,8.11764717102,17.591999054,0.568000018597,833342592.0
2021/06/30/16:11:40.584029,897,1495524042,777347610,gps_link,1179559257.82,19.2823562622,101.146003723,199257.599926,17,5,23,7,20,42,599,1950,3,10,55.3272164,11.3883878,77.808,0.0,0.189999997616,-0.209999993443,9.41647052765,8.11764717102,17.5680007935,0.568000018597,833342592.0
2021/06/30/16:11:40.712750,898,1495524043,20690610,gps_link,1179559258.07,19.2889003754,101.146003723,199257.799926,17,5,23,7,20,42,799,1950,3,10,55.3272164,11.3883884,77.845,0.00999999977648,0.140000000596,-0.430000007153,9.41647052765,8.11764717102,17.5499992371,0.680000007153,833342592.0
2021/06/30/16:11:40.798795,899,1495524043,274379860,gps_link,1179559258.32,19.2924461365,101.146003723,199258.199925,17,5,23,7,20,43,199,1950,3,10,55.3272169,11.3883895,77.82,0.259999990463,0.189999997616,-0.34999999404,9.39088249207,8.09558868408,17.513999939,0.624000012875,833342592.0
2021/06/30/16:11:40.896824,900,1495524043,519367193,gps_link,1179559258.57,19.2963104248,101.130004883,199258.399924,17,5,23,7,20,43,399,1950,3,10,55.3272172,11.3883898,77.878,0.140000000596,-0.070000000298,-0.72000002861,9.39088249207,8.09558868408,17.5020008087,0.680000007153,833342592.0
2021/06/30/16:11:41.049942,901,1495524043,776807735,gps_link,1179559258.82,19.2964096069,101.146003723,199258.599924,17,5,23,7,20,43,599,1950,3,10,55.3272173,11.38839,77.98,-0.0900000035763,0.159999996424,-1.00999999046,9.39088249207,8.09558868408,17.4840011597,0.688000023365,833342592.0
2021/06/30/16:11:41.145563,902,1495524044,19726027,gps_link,1179559259.07,19.297958374,101.119003296,199258.799924,17,5,23,7,20,43,799,1950,3,10,55.3272172,11.3883907,78.112,0.119999997318,0.25,-1.23000001907,9.36529350281,8.07352924347,17.4720001221,0.67199999094,833342592.0
2021/06/30/16:11:41.232318,903,1495524044,273720402,gps_link,1179559259.32,19.3020877838,101.123001099,199259.199923,17,5,23,7,20,44,199,1950,3,10,55.327217,11.3883918,78.716,-0.189999997616,0.140000000596,-2.26999998093,9.36529350281,8.07352924347,17.4420013428,0.688000023365,833342592.0
2021/06/30/16:11:41.352841,904,1495524044,522293985,gps_link,1179559259.57,19.3061027527,101.123001099,199259.399922,17,5,23,7,20,44,399,1950,3,10,55.3272168,11.388392,79.169,0.0500000007451,-0.0299999993294,-2.77999997139,9.36529350281,8.07352924347,17.4359989166,0.688000023365,833342592.0
2021/06/30/16:11:41.502359,905,1495524044,777523985,gps_link,1179559259.82,19.3065109253,101.11100769,199259.599922,17,5,23,7,20,44,599,1950,3,10,55.327217,11.3883917,79.604,0.140000000596,-0.140000000596,-2.46000003815,9.33970546722,8.05147075653,17.4300003052,0.688000023365,833342592.0
2021/06/30/16:11:41.571509,906,1495524045,20142860,gps_link,1179559260.07,19.3087368011,101.100006104,199259.799922,17,5,23,7,20,44,799,1950,3,10,55.3272171,11.3883919,79.981,-0.00999999977648,0.239999994636,-2.51999998093,9.33970546722,8.05147075653,17.4239997864,0.688000023365,833342592.0
2021/06/30/16:11:41.657802,907,1495524045,275143735,gps_link,1179559260.32,19.31016922,101.100006104,199260.199921,17,5,23,7,20,45,199,1950,3,10,55.3272168,11.3883924,80.84,0.119999997318,0.119999997318,-2.45000004768,9.33970546722,8.05147075653,17.4239997864,0.703999996185,833342592.0
2021/06/30/16:11:41.786377,908,1495524045,521550735,gps_link,1179559260.57,19.3115901947,101.100006104,199260.39992,17,5,23,7,20,45,399,1950,3,10,55.327217,11.3883925,81.332,0.0599999986589,-0.0500000007451,-2.99000000954,9.33970546722,8.05147075653,17.4239997864,0.728000044823,833342592.0
2021/06/30/16:11:41.849808,909,1495524045,774173277,gps_link,1179559260.82,19.3128070831,101.081001282,199260.59992,17,5,23,7,20,45,599,1950,3,10,55.3272171,11.3883926,81.825,-0.0900000035763,0.170000001788,-2.68000006676,9.33970546722,8.05147075653,17.4300003052,0.719999969006,833342592.0
2021/06/30/16:11:41.968953,910,1495524046,18571944,gps_link,1179559261.07,19.3134346008,101.076004028,199260.79992,17,5,23,7,20,45,799,1950,3,10,55.3272169,11.3883926,82.256,-0.170000001788,-0.109999999404,-2.43000006676,9.33970546722,8.05147075653,17.4420013428,0.728000044823,833342592.0
2021/06/30/16:11:42.098089,911,1495524046,274986235,gps_link,1179559261.32,19.3143253326,101.069007874,199261.199919,17,5,23,7,20,46,199,1950,3,10,55.3272165,11.3883929,83.153,-0.259999990463,0.00999999977648,-2.54999995232,9.36529350281,8.07352924347,17.4600009918,0.736000001431,833342592.0
2021/06/30/16:11:42.219806,912,1495524046,519378902,gps_link,1179559261.57,19.3136062622,101.069007874,199261.399918,17,5,23,7,20,46,399,1950,3,10,55.327216,11.3883927,83.572,-0.430000007153,-0.159999996424,-2.5,9.36529350281,8.07352924347,17.4659996033,0.736000001431,833342592.0
2021/06/30/16:11:42.347745,913,1495524046,774095277,gps_link,1179559261.82,19.3185863495,101.057006836,199261.599918,17,5,23,7,20,46,599,1950,3,10,55.3272153,11.3883925,84.079,-0.280000001192,0.0299999993294,-2.78999996185,9.36529350281,8.07352924347,17.4780006409,0.728000044823,833342592.0
2021/06/30/16:11:42.476776,914,1495524047,20434110,gps_link,1179559262.07,19.3201026917,101.046005249,199261.799918,17,5,23,7,20,46,799,1950,3,10,55.3272154,11.3883927,84.61,0.189999997616,0.10000000149,-2.98000001907,9.36529350281,8.07352924347,17.4840011597,0.719999969006,833342592.0
2021/06/30/16:11:43.106155,915,1495524047,276976152,gps_link,1179559262.32,19.3242492676,101.034004211,199262.199917,17,5,23,7,20,47,199,1950,3,10,55.3272154,11.388392,85.523,-0.070000000298,-0.259999990463,-2.6400001049,9.39088249207,8.09558868408,17.5200004578,0.719999969006,833342592.0
2021/06/30/16:11:43.368036,916,1495524047,526128777,gps_link,1179559262.57,19.3252601624,101.023002625,199262.399916,17,5,23,7,20,47,399,1950,3,10,55.3272152,11.3883916,85.937,-0.20000000298,0.0399999991059,-2.50999999046,9.39088249207,8.09558868408,17.5260009766,0.703999996185,833342592.0
2021/06/30/16:11:44.020283,917,1495524047,777037736,gps_link,1179559262.82,19.3274803162,101.023002625,199262.599916,17,5,23,7,20,47,599,1950,3,10,55.327215,11.3883916,86.342,-0.109999999404,-0.0399999991059,-2.53999996185,9.39088249207,8.09558868408,17.531999588,0.703999996185,833342592.0
2021/06/30/16:11:44.535064,918,1495524048,22443902,gps_link,1179559263.07,19.3273773193,101.034004211,199262.799916,17,5,23,7,20,47,799,1950,3,10,55.327215,11.3883916,86.731,-0.0500000007451,0.0299999993294,-2.34999990463,9.39088249207,8.09558868408,17.531999588,0.703999996185,833342592.0
2021/06/30/16:11:45.206674,919,1495524048,275298736,gps_link,1179559263.32,19.3300533295,101.011001587,199263.199915,17,5,23,7,20,48,199,1950,3,10,55.3272146,11.3883916,87.537,-0.0500000007451,0.0799999982119,-2.40000009537,9.39088249207,8.09558868408,17.5380001068,0.728000044823,833342592.0
2021/06/30/16:11:45.960340,920,1495524048,518591402,gps_link,1179559263.57,19.3316078186,101.034004211,199263.399914,17,5,23,7,20,48,399,1950,3,10,55.3272146,11.3883919,87.944,0.0,0.070000000298,-2.27999997139,9.39088249207,8.09558868408,17.5440006256,0.736000001431,833342592.0
2021/06/30/16:11:46.623480,921,1495524048,773451111,gps_link,1179559263.82,19.3356876373,101.015007019,199263.599914,17,5,23,7,20,48,599,1950,3,10,55.3272145,11.3883921,88.342,-0.0900000035763,0.019999999553,-2.23000001907,9.39088249207,8.09558868408,17.5559997559,0.736000001431,833342592.0
2021/06/30/16:11:47.092784,922,1495524049,20127069,gps_link,1179559264.07,19.3373203278,101.015007019,199263.799914,17,5,23,7,20,48,799,1950,3,10,55.3272145,11.3883922,88.698,-0.109999999404,0.0599999986589,-2.20000004768,9.39088249207,8.09558868408,17.5620002747,0.736000001431,833342592.0
2021/06/30/16:11:47.720572,923,1495524049,273373902,gps_link,1179559264.32,19.3396110535,101.004005432,199264.199913,17,5,23,7,20,49,199,1950,3,10,55.3272142,11.3883926,89.358,0.10000000149,0.070000000298,-2.07999992371,9.41647052765,8.11764717102,17.5860004425,0.744000017643,833342592.0
2021/06/30/16:11:48.027208,924,1495524049,519260611,gps_link,1179559264.57,19.3365154266,101.015007019,199264.399912,17,5,23,7,20,49,399,1950,3,10,55.3272143,11.3883927,89.736,0.00999999977648,0.0,-1.95000004768,9.41647052765,8.11764717102,17.5979995728,0.736000001431,833342592.0
2021/06/30/16:11:48.678860,925,1495524049,777756402,gps_link,1179559264.82,19.3365135193,100.996002197,199264.599912,17,5,23,7,20,49,599,1950,3,10,55.3272144,11.3883928,90.102,0.0500000007451,-0.00999999977648,-2.00999999046,9.41647052765,8.11764717102,17.6040000916,0.728000044823,833342592.0
2021/06/30/16:11:49.977273,926,1495524050,20178278,gps_link,1179559265.07,19.3405303955,100.981002808,199264.799912,17,5,23,7,20,49,799,1950,3,10,55.3272146,11.3883928,90.423,0.0399999991059,0.00999999977648,-2.00999999046,9.41647052765,8.11764717102,17.6100006104,0.719999969006,833342592.0
2021/06/30/16:11:50.662308,927,1495524050,274934278,gps_link,1179559265.32,19.3438243866,100.996002197,199265.199911,17,5,23,7,20,50,199,1950,3,10,55.3272145,11.3883929,91.026,0.10000000149,0.0599999986589,-1.73000001907,9.41647052765,8.11764717102,17.6280002594,0.752000033855,833342592.0
2021/06/30/16:11:50.997756,928,1495524050,531337986,gps_link,1179559265.57,19.3437995911,100.96900177,199265.39991,17,5,23,7,20,50,399,1950,3,10,55.3272143,11.388393,91.452,-0.180000007153,0.00999999977648,-2.15000009537,9.41647052765,8.11764717102,17.6459999084,0.776000022888,833342592.0
2021/06/30/16:11:51.419729,929,1495524050,778266778,gps_link,1179559265.82,19.3430957794,100.973007202,199265.59991,17,5,23,7,20,50,599,1950,3,10,55.3272142,11.3883933,91.803,-0.0599999986589,0.119999997318,-2.07999992371,9.44205856323,8.13970565796,17.6639995575,0.752000033855,833342592.0
2021/06/30/16:11:51.922634,930,1495524051,20650819,gps_link,1179559266.07,19.3468589783,100.950004578,199265.79991,17,5,23,7,20,50,799,1950,3,10,55.3272141,11.3883937,92.193,-0.0599999986589,0.0500000007451,-2.20000004768,9.44205856323,8.13970565796,17.6760005951,0.752000033855,833342592.0
2021/06/30/16:11:52.082309,931,1495524051,274947486,gps_link,1179559266.32,19.3511695862,100.950004578,199266.199909,17,5,23,7,20,51,199,1950,3,10,55.3272138,11.3883941,92.974,-0.0900000035763,-0.180000007153,-2.3599998951,9.44205856323,8.13970565796,17.6940002441,0.712000012398,833342592.0
2021/06/30/16:11:52.169250,932,1495524051,524124486,gps_link,1179559266.57,19.354385376,100.950004578,199266.399908,17,5,23,7,20,51,399,1950,3,10,55.3272138,11.3883941,93.336,-0.0399999991059,0.119999997318,-2.07999992371,9.44205856323,8.13970565796,17.6940002441,0.712000012398,833342592.0
2021/06/30/16:11:52.674849,933,1495524051,777391069,gps_link,1179559266.82,19.3568153381,100.939002991,199266.599908,17,5,23,7,20,51,599,1950,3,10,55.3272138,11.3883945,93.745,0.10000000149,0.070000000298,-2.25999999046,9.46764755249,8.1617641449,17.7000007629,0.712000012398,833342592.0
2021/06/30/16:11:53.195943,934,1495524052,19226736,gps_link,1179559267.07,19.3572006226,100.939002991,199266.799908,17,5,23,7,20,51,799,1950,3,10,55.3272143,11.3883948,94.038,0.239999994636,0.070000000298,-2.03999996185,9.46764755249,8.1617641449,17.7059993744,0.703999996185,833342592.0
2021/06/30/16:11:53.488798,935,1495524052,276500653,gps_link,1179559267.32,19.3572483063,100.939002991,199267.199907,17,5,23,7,20,52,199,1950,3,10,55.3272144,11.3883939,94.861,0.0299999993294,-0.189999997616,-2.3599998951,9.46764755249,8.1617641449,17.7119998932,0.728000044823,833342592.0
2021/06/30/16:11:53.795591,936,1495524052,518891361,gps_link,1179559267.57,19.3588504791,100.943008423,199267.399906,17,5,23,7,20,52,399,1950,3,10,55.3272143,11.3883936,95.301,-0.219999998808,0.0,-2.54999995232,9.46764755249,8.1617641449,17.718000412,0.728000044823,833342592.0
2021/06/30/16:11:54.359804,937,1495524052,777429403,gps_link,1179559267.82,19.3621425629,100.931007385,199267.599906,17,5,23,7,20,52,599,1950,3,10,55.3272143,11.3883939,95.671,0.0399999991059,0.15000000596,-2.3599998951,9.46764755249,8.1617641449,17.7239990234,0.712000012398,833342592.0
2021/06/30/16:11:54.854376,938,1495524053,22559445,gps_link,1179559268.07,19.3642845154,100.920005798,199267.799906,17,5,23,7,20,52,799,1950,3,10,55.3272144,11.3883942,96.053,-0.170000001788,0.0599999986589,-2.24000000954,9.46764755249,8.1617641449,17.736000061,0.744000017643,833342592.0
2021/06/30/16:11:55.293542,939,1495524053,274358695,gps_link,1179559268.32,19.3658885956,100.908004761,199268.199905,17,5,23,7,20,53,199,1950,3,10,55.3272136,11.388394,96.83,-0.25,0.109999999404,-2.17000007629,9.46764755249,8.1617641449,17.7540016174,0.744000017643,833342592.0
2021/06/30/16:11:55.847405,940,1495524053,520480111,gps_link,1179559268.57,19.3719577789,100.920005798,199268.399904,17,5,23,7,20,53,399,1950,3,10,55.3272133,11.3883943,97.119,-0.219999998808,0.070000000298,-1.92999994755,9.49323558807,8.18382263184,17.7659988403,0.768000006676,833342592.0
2021/06/30/16:11:56.361473,941,1495524053,777536028,gps_link,1179559268.82,19.3757381439,100.904006958,199268.599904,17,5,23,7,20,53,599,1950,3,10,55.3272131,11.3883944,97.476,-0.10000000149,-0.019999999553,-1.94000005722,9.49323558807,8.18382263184,17.7779998779,0.752000033855,833342592.0
2021/06/30/16:11:56.898035,942,1495524054,18201611,gps_link,1179559269.07,19.377954483,100.908004761,199268.799904,17,5,23,7,20,53,799,1950,3,10,55.3272131,11.3883946,97.817,-0.019999999553,0.170000001788,-1.83000004292,9.49323558807,8.18382263184,17.7960014343,0.744000017643,833342592.0
2021/06/30/16:11:57.221561,943,1495524054,276479070,gps_link,1179559269.32,19.3773422241,100.897003174,199269.199903,17,5,23,7,20,54,199,1950,3,10,55.3272134,11.3883946,98.369,0.209999993443,0.0500000007451,-1.83000004292,9.51882362366,8.20588207245,17.8140010834,0.719999969006,833342592.0
2021/06/30/16:11:57.719318,944,1495524054,518566278,gps_link,1179559269.57,19.3773822784,100.897003174,199269.399902,17,5,23,7,20,54,399,1950,3,10,55.3272136,11.3883944,98.588,-0.180000007153,-0.170000001788,-1.59000003338,9.51882362366,8.20588207245,17.8260002136,0.736000001431,833342592.0
2021/06/30/16:11:58.144076,945,1495524054,773257320,gps_link,1179559269.82,19.3821907043,100.885002136,199269.599902,17,5,23,7,20,54,599,1950,3,10,55.3272136,11.3883938,98.933,-0.10000000149,-0.219999998808,-1.86000001431,9.51882362366,8.20588207245,17.8380012512,0.744000017643,833342592.0
2021/06/30/16:11:58.441947,946,1495524055,20543611,gps_link,1179559270.07,19.3846912384,100.901008606,199269.799902,17,5,23,7,20,54,799,1950,3,10,55.3272134,11.3883931,99.126,-0.270000010729,-0.180000007153,-1.38999998569,9.51882362366,8.20588207245,17.8439998627,0.744000017643,833342592.0
2021/06/30/16:11:58.611559,947,1495524055,274071653,gps_link,1179559270.32,19.3842926025,100.885002136,199270.199901,17,5,23,7,20,55,199,1950,3,10,55.327214,11.3883922,99.678,-0.0599999986589,-0.119999997318,-1.87999999523,9.51882362366,8.20588207245,17.8499984741,0.736000001431,833342592.0
2021/06/30/16:11:58.985192,948,1495524055,526426487,gps_link,1179559270.57,19.3878364563,100.889007568,199270.3999,17,5,23,7,20,55,399,1950,3,10,55.3272138,11.3883921,99.92,-0.430000007153,0.0500000007451,-1.55999994278,9.51882362366,8.20588207245,17.8499984741,0.712000012398,833342592.0
2021/06/30/16:11:59.492949,949,1495524055,776466820,gps_link,1179559270.82,19.3904533386,100.878005981,199270.5999,17,5,23,7,20,55,599,1950,3,10,55.3272134,11.3883921,100.247,-0.129999995232,-0.019999999553,-1.82000005245,9.51882362366,8.20588207245,17.8499984741,0.728000044823,833342592.0
2021/06/30/16:12:00.103876,950,1495524056,21852362,gps_link,1179559271.07,19.3910903931,100.866004944,199270.7999,17,5,23,7,20,55,799,1950,3,10,55.3272134,11.3883922,100.49,-0.0399999991059,0.0799999982119,-1.48000001907,9.51882362366,8.20588207245,17.8439998627,0.712000012398,833342592.0
2021/06/30/16:12:00.271932,951,1495524056,273996820,gps_link,1179559271.32,19.3941955566,100.866004944,199271.199899,17,5,23,7,20,56,199,1950,3,10,55.327214,11.3883925,100.732,0.300000011921,0.189999997616,-0.519999980927,9.51882362366,8.20588207245,17.8319988251,0.680000007153,833342592.0
2021/06/30/16:12:00.368306,952,1495524056,520002820,gps_link,1179559271.57,19.3945903778,100.878005981,199271.399898,17,5,23,7,20,56,399,1950,3,10,55.3272144,11.3883928,100.718,0.0599999986589,0.0299999993294,-0.140000000596,9.49323558807,8.18382263184,17.8079986572,0.712000012398,833342592.0
2021/06/30/16:12:00.487950,953,1495524056,777357903,gps_link,1179559271.82,19.394153595,100.882003784,199271.599898,17,5,23,7,20,56,599,1950,3,10,55.3272145,11.3883933,100.687,0.170000001788,0.180000007153,-0.129999995232,9.49323558807,8.18382263184,17.7899990082,0.592000007629,833342592.0
2021/06/30/16:12:00.585700,954,1495524057,20930778,gps_link,1179559272.07,19.3960857391,100.866004944,199271.799898,17,5,23,7,20,56,799,1950,3,10,55.3272146,11.3883942,100.641,0.209999993443,0.300000011921,0.170000001788,9.46764755249,8.1617641449,17.7659988403,0.519999980927,833342592.0
2021/06/30/16:12:00.670217,955,1495524057,274631237,gps_link,1179559272.32,19.4002056122,100.866004944,199272.199897,17,5,23,7,20,57,199,1950,3,10,55.327215,11.3883949,100.463,0.0799999982119,0.119999997318,0.270000010729,9.44205856323,8.13970565796,17.7239990234,0.648000001907,833342592.0
2021/06/30/16:12:00.794231,956,1495524057,522571320,gps_link,1179559272.57,19.4023017883,100.870002747,199272.399896,17,5,23,7,20,57,399,1950,3,10,55.3272152,11.3883957,100.403,-0.109999999404,0.239999994636,0.189999997616,9.44205856323,8.13970565796,17.7059993744,0.560000002384,833342592.0
2021/06/30/16:12:00.890553,957,1495524057,776463445,gps_link,1179559272.82,19.4035892487,100.878005981,199272.599896,17,5,23,7,20,57,599,1950,3,10,55.3272154,11.3883966,100.368,0.019999999553,0.280000001192,-0.0299999993294,9.41647052765,8.11764717102,17.6760005951,0.432000011206,833342592.0
2021/06/30/16:12:01.034974,958,1495524058,22309153,gps_link,1179559273.07,19.4058895111,100.85900116,199272.799896,17,5,23,7,20,57,799,1950,3,10,55.3272155,11.3883979,100.371,-0.230000004172,0.449999988079,-0.259999990463,9.41647052765,8.11764717102,17.6459999084,0.544000029564,833342592.0
2021/06/30/16:12:01.827709,959,1495524058,274178695,gps_link,1179559273.32,19.4092845917,100.882003784,199273.199895,17,5,23,7,20,58,199,1950,3,10,55.3272149,11.3884019,100.384,-0.680000007153,0.889999985695,-0.129999995232,9.36529350281,8.07352924347,17.5680007935,0.463999986649,833342592.0
2021/06/30/16:12:02.535982,960,1495524058,526380654,gps_link,1179559273.57,19.4135475159,100.85900116,199273.399894,17,5,23,7,20,58,399,1950,3,10,55.3272138,11.3884053,100.387,-1.08000004292,1.25,-0.239999994636,9.36529350281,8.07352924347,17.5380001068,0.480000019073,833342592.0
2021/06/30/16:12:03.489770,961,1495524058,777405737,gps_link,1179559273.82,19.4137039185,100.85900116,199273.599894,17,5,23,7,20,58,599,1950,3,10,55.3272123,11.3884095,100.405,-1.10000002384,1.38999998569,-0.25,9.33970546722,8.05147075653,17.5020008087,0.471999973059,833342592.0
2021/06/30/16:12:03.886325,962,1495524059,18980070,gps_link,1179559274.07,19.4098739624,100.870002747,199273.799894,17,5,23,7,20,58,799,1950,3,10,55.3272101,11.3884147,100.409,-1.80999994278,1.87000000477,-0.219999998808,9.31411743164,8.02941131592,17.4659996033,0.463999986649,833342592.0
2021/06/30/16:12:04.416106,963,1495524059,277796654,gps_link,1179559274.32,19.4104194641,100.882003784,199274.199893,17,5,23,7,20,59,199,1950,3,10,55.3272043,11.3884278,100.476,-2.1099998951,2.24000000954,-0.270000010729,9.28852939606,8.00735282898,17.3880004883,0.448000013828,833342592.0
2021/06/30/16:12:04.813168,964,1495524059,521001404,gps_link,1179559274.57,19.4159755707,100.874008179,199274.399892,17,5,23,7,20,59,399,1950,3,10,55.3272013,11.3884348,100.499,-1.73000001907,2.16000008583,-0.319999992847,9.26294136047,7.9852938652,17.3460006714,0.448000013828,833342592.0
2021/06/30/16:12:05.369888,965,1495524059,782356654,gps_link,1179559274.82,19.4181137085,100.882003784,199274.599892,17,5,23,7,20,59,599,1950,3,10,55.3271985,11.3884415,100.466,-1.87999999523,2.02999997139,0.0,9.23735237122,7.96323490143,17.3040008545,0.432000011206,833342592.0
2021/06/30/16:12:05.709484,966,1495524060,19598820,gps_link,1179559275.07,19.4175453186,100.886001587,199274.799892,17,5,23,7,20,59,799,1950,3,10,55.3271957,11.3884486,100.463,-1.79999995232,2.34999990463,-0.25,9.21176433563,7.94117641449,17.267999649,0.440000027418,833342592.0
2021/06/30/16:12:06.091846,967,1495524060,275581695,gps_link,1179559275.32,19.4190483093,100.886001587,199275.199891,17,5,23,7,21,0,199,1950,3,10,55.3271913,11.3884621,100.467,-1.17999994755,2.16000008583,-0.270000010729,9.16058731079,7.89705848694,17.1959991455,0.440000027418,833342592.0
2021/06/30/16:12:06.389673,968,1495524060,521911820,gps_link,1179559275.57,19.4191322327,100.874008179,199275.39989,17,5,23,7,21,0,399,1950,3,10,55.3271897,11.3884689,100.471,-0.920000016689,2.03999996185,-0.219999998808,9.16058731079,7.89705848694,17.1660003662,0.448000013828,833342592.0
2021/06/30/16:12:07.630449,969,1495524060,775539279,gps_link,1179559275.82,19.4215011597,100.863006592,199275.59989,17,5,23,7,21,0,599,1950,3,10,55.3271885,11.3884748,100.455,-0.699999988079,1.55999994278,-0.10000000149,9.13499927521,7.875,17.1359996796,0.432000011206,833342592.0
2021/06/30/16:12:07.720663,970,1495524061,18600070,gps_link,1179559276.07,19.4274978638,100.874008179,199275.79989,17,5,23,7,21,0,799,1950,3,10,55.3271878,11.3884801,100.476,-0.159999996424,1.62999999523,-0.330000013113,9.13499927521,7.875,17.1119995117,0.432000011206,833342592.0
2021/06/30/16:12:07.806717,971,1495524061,275239237,gps_link,1179559276.32,19.4276428223,100.874008179,199276.199889,17,5,23,7,21,1,199,1950,3,10,55.3271868,11.3884899,100.5,-0.34999999404,1.48000001907,-0.25,9.10941123962,7.85294055939,17.0699996948,0.423999994993,833342592.0
2021/06/30/16:12:08.139678,972,1495524061,520407987,gps_link,1179559276.57,19.4302558899,100.874008179,199276.399889,17,5,23,7,21,1,399,1950,3,10,55.3271863,11.3884944,100.481,-0.409999996424,1.26999998093,-0.230000004172,9.10941123962,7.85294055939,17.0460014343,0.432000011206,833342592.0
2021/06/30/16:12:08.645277,973,1495524061,776477904,gps_link,1179559276.82,19.4299621582,100.878005981,199276.599888,17,5,23,7,21,1,599,1950,3,10,55.327186,11.3884981,100.509,-0.239999994636,0.930000007153,-0.340000003576,9.08382320404,7.83088207245,17.0219993591,0.480000019073,833342592.0
2021/06/30/16:12:08.764428,974,1495524062,22484362,gps_link,1179559277.07,19.4287834167,100.874008179,199276.799888,17,5,23,7,21,1,799,1950,3,10,55.3271858,11.3885012,100.536,-0.34999999404,0.889999985695,-0.560000002384,9.08382320404,7.83088207245,16.986000061,0.544000029564,833342592.0
2021/06/30/16:12:09.172041,975,1495524062,273877112,gps_link,1179559277.32,19.432592392,100.886001587,199277.199887,17,5,23,7,21,2,199,1950,3,10,55.3271848,11.3885065,100.619,-0.469999998808,0.569999992847,-0.360000014305,9.0326461792,7.78676462173,16.9319992065,0.544000029564,833342592.0
2021/06/30/16:12:09.425684,976,1495524062,521300154,gps_link,1179559277.57,19.4349098206,100.874008179,199277.399887,17,5,23,7,21,2,399,1950,3,10,55.3271845,11.3885084,100.667,-0.280000001192,0.449999988079,-0.34999999404,9.0326461792,7.78676462173,16.9139995575,0.576000034809,833342592.0
2021/06/30/16:12:09.983747,977,1495524062,775770779,gps_link,1179559277.82,19.4409217834,100.867004395,199277.599886,17,5,23,7,21,2,599,1950,3,10,55.3271842,11.3885101,100.679,-0.340000003576,0.52999997139,-0.289999991655,9.0326461792,7.78676462173,16.8899993896,0.512000024319,833342592.0
2021/06/30/16:12:10.143984,978,1495524063,19546654,gps_link,1179559278.07,19.4408855438,100.867004395,199277.799886,17,5,23,7,21,2,799,1950,3,10,55.3271838,11.3885115,100.732,-0.360000014305,0.300000011921,-0.52999997139,9.00705909729,7.76470565796,16.8719997406,0.6400000453,833342592.0
2021/06/30/16:12:10.599056,979,1495524063,273413696,gps_link,1179559278.32,19.4462928772,100.878005981,199277.999885,17,5,23,7,21,3,0,1950,3,10,55.3271838,11.3885125,100.802,0.119999997318,0.270000010729,-0.550000011921,9.00705909729,7.76470565796,16.8600006104,0.632000029087,833342592.0
2021/06/30/16:12:10.857378,980,1495524063,519937987,gps_link,1179559278.57,19.4437980652,100.867004395,199278.399885,17,5,23,7,21,3,399,1950,3,10,55.3271842,11.3885142,100.781,0.129999995232,0.180000007153,-0.10000000149,9.00705909729,7.76470565796,16.8839988708,0.512000024319,833342592.0
2021/06/30/16:12:11.351337,981,1495524063,776217154,gps_link,1179559278.82,19.4430828094,100.867004395,199278.599884,17,5,23,7,21,3,599,1950,3,10,55.3271845,11.3885145,100.767,0.10000000149,0.0,-0.119999997318,9.00705909729,7.76470565796,16.8899993896,0.65600001812,833342592.0
2021/06/30/16:12:11.676320,982,1495524064,19575571,gps_link,1179559279.07,19.4449863434,100.878005981,199278.799884,17,5,23,7,21,3,799,1950,3,10,55.3271845,11.3885143,100.743,-0.10000000149,-0.170000001788,-0.10000000149,9.00705909729,7.76470565796,16.8839988708,0.471999973059,833342592.0
2021/06/30/16:12:12.197039,983,1495524064,274949863,gps_link,1179559279.32,19.4485244751,100.878005981,199279.199883,17,5,23,7,21,4,199,1950,3,10,55.3271854,11.3885124,100.809,0.34999999404,-0.430000007153,-0.389999985695,9.00705909729,7.76470565796,16.8719997406,0.528000056744,833342592.0
2021/06/30/16:12:12.532866,984,1495524064,520691446,gps_link,1179559279.57,19.4519329071,100.878005981,199279.399883,17,5,23,7,21,4,399,1950,3,10,55.3271858,11.3885105,100.802,0.0599999986589,-0.790000021458,-0.409999996424,9.00705909729,7.76470565796,16.8660011292,0.432000011206,833342592.0
2021/06/30/16:12:13.025412,985,1495524064,777132321,gps_link,1179559279.82,19.4527130127,100.871002197,199279.599882,17,5,23,7,21,4,599,1950,3,10,55.3271862,11.3885077,100.919,0.360000014305,-1.02999997139,-0.870000004768,9.00705909729,7.76470565796,16.8660011292,0.519999980927,833342592.0
2021/06/30/16:12:13.542253,986,1495524065,22561946,gps_link,1179559280.07,19.4531154633,100.867004395,199279.799882,17,5,23,7,21,4,799,1950,3,10,55.3271871,11.3885041,101.029,0.579999983311,-1.28999996185,-0.790000021458,9.00705909729,7.76470565796,16.8719997406,0.496000021696,833342592.0
2021/06/30/16:12:13.995737,987,1495524065,279736529,gps_link,1179559280.32,19.4535102844,100.882003784,199280.199881,17,5,23,7,21,5,199,1950,3,10,55.3271894,11.3884929,101.268,0.810000002384,-2.21000003815,-1.03999996185,9.00705909729,7.76470565796,16.8959999084,0.463999986649,833342592.0
2021/06/30/16:12:14.353879,988,1495524065,519641446,gps_link,1179559280.57,19.4563179016,100.871002197,199280.399881,17,5,23,7,21,5,399,1950,3,10,55.3271909,11.3884861,101.358,0.920000016689,-2.11999988556,-0.939999997616,9.0326461792,7.78676462173,16.908000946,0.471999973059,833342592.0
2021/06/30/16:12:15.018767,989,1495524065,777487196,gps_link,1179559280.82,19.4554347992,100.871002197,199280.59988,17,5,23,7,21,5,599,1950,3,10,55.3271923,11.3884785,101.433,0.670000016689,-2.6400001049,-0.769999980927,9.0326461792,7.78676462173,16.9139995575,0.432000011206,833342592.0
2021/06/30/16:12:15.789418,990,1495524066,19104154,gps_link,1179559281.07,19.4557952881,100.867004395,199280.79988,17,5,23,7,21,5,799,1950,3,10,55.3271937,11.3884704,101.562,0.930000007153,-2.52999997139,-1.07000005245,9.0326461792,7.78676462173,16.9319992065,0.471999973059,833342592.0
2021/06/30/16:12:16.243849,991,1495524066,276364154,gps_link,1179559281.32,19.4557285309,100.85900116,199281.199879,17,5,23,7,21,6,199,1950,3,10,55.3271963,11.3884542,101.738,0.600000023842,-2.53999996185,-0.670000016689,9.05823516846,7.80882310867,16.9559993744,0.415999978781,833342592.0
2021/06/30/16:12:17.269968,992,1495524066,517983321,gps_link,1179559281.57,19.460975647,100.871002197,199281.399879,17,5,23,7,21,6,399,1950,3,10,55.3271974,11.3884464,101.765,0.550000011921,-2.41000008583,-0.639999985695,9.05823516846,7.80882310867,16.9619998932,0.40000000596,833342592.0
