time,.header.seq,.header.stamp.secs,.header.stamp.nsecs,.header.frame_id,.status.status,.status.service,.latitude,.longitude,.altitude,.position_covariance,.position_covariance_type
2021/06/30/16:10:52.394295,1,1495524016,276365857,,0,0,55.3272623931,11.3883719931,69.5720004931,"(0.0, 0.0, 0.0, 0.0, 0.0, 0.0, 0.0, 0.0, 0.0)",0
2021/06/30/16:10:52.648332,2,1495524016,522294940,,0,0,55.3272622623,11.3883712623,69.5219999623,"(0.0, 0.0, 0.0, 0.0, 0.0, 0.0, 0.0, 0.0, 0.0)",0
2021/06/30/16:11:03.615843,3,1495524016,773827815,,0,0,55.3272640269,11.3883723269,69.5390013269,"(0.0, 0.0, 0.0, 0.0, 0.0, 0.0, 0.0, 0.0, 0.0)",0
2021/06/30/16:11:03.977999,4,1495524017,19981065,,0,0,55.3272637135,11.3883717135,69.5210009135,"(0.0, 0.0, 0.0, 0.0, 0.0, 0.0, 0.0, 0.0, 0.0)",0
2021/06/30/16:11:04.257156,5,1495524017,274253732,,0,0,55.3272623469,11.3883703469,69.4909995469,"(0.0, 0.0, 0.0, 0.0, 0.0, 0.0, 0.0, 0.0, 0.0)",0
2021/06/30/16:11:04.430431,6,1495524017,518179357,,0,0,55.3272627738,11.3883711738,69.5010000738,"(0.0, 0.0, 0.0, 0.0, 0.0, 0.0, 0.0, 0.0, 0.0)",0
2021/06/30/16:11:04.613337,7,1495524017,773176440,,0,0,55.3272621879,11.3883704879,69.4869992879,"(0.0, 0.0, 0.0, 0.0, 0.0, 0.0, 0.0, 0.0, 0.0)",0
2021/06/30/16:11:04.860259,8,1495524018,19403065,,0,0,55.3272634929,11.3883716929,69.5050003929,"(0.0, 0.0, 0.0, 0.0, 0.0, 0.0, 0.0, 0.0, 0.0)",0
2021/06/30/16:11:05.140086,9,1495524018,273897357,,0,0,55.3272645887,11.3883719887,69.6130009887,"(0.0, 0.0, 0.0, 0.0, 0.0, 0.0, 0.0, 0.0, 0.0)",0
2021/06/30/16:11:05.360251,10,1495524018,518771440,,0,0,55.32726385,11.38837145,69.67800025,"(0.0, 0.0, 0.0, 0.0, 0.0, 0.0, 0.0, 0.0, 0.0)",0
2021/06/30/16:11:05.631042,11,1495524018,775641274,,0,0,55.3272645483,11.3883719483,69.7290010483,"(0.0, 0.0, 0.0, 0.0, 0.0, 0.0, 0.0, 0.0, 0.0)",0
2021/06/30/16:11:05.871870,12,1495524019,21963232,,0,0,55.3272633338,11.3883702338,69.7559998338,"(0.0, 0.0, 0.0, 0.0, 0.0, 0.0, 0.0, 0.0, 0.0)",0
2021/06/30/16:11:06.116897,13,1495524019,272962357,,0,0,55.3272628981,11.3883699981,69.9119993981,"(0.0, 0.0, 0.0, 0.0, 0.0, 0.0, 0.0, 0.0, 0.0)",0
2021/06/30/16:11:06.357911,14,1495524019,517249732,,0,0,55.3272631932,11.3883700932,70.1489991932,"(0.0, 0.0, 0.0, 0.0, 0.0, 0.0, 0.0, 0.0, 0.0)",0
2021/06/30/16:11:06.644476,15,1495524019,773561149,,0,0,55.3272650333,11.3883717333,70.4380006333,"(0.0, 0.0, 0.0, 0.0, 0.0, 0.0, 0.0, 0.0, 0.0)",0
2021/06/30/16:11:06.876268,16,1495524020,19275524,,0,0,55.3272638977,11.3883706977,70.8139996977,"(0.0, 0.0, 0.0, 0.0, 0.0, 0.0, 0.0, 0.0, 0.0)",0
2021/06/30/16:11:07.139694,17,1495524020,272911816,,0,0,55.3272619639,11.3883689639,71.9019980639,"(0.0, 0.0, 0.0, 0.0, 0.0, 0.0, 0.0, 0.0, 0.0)",0
2021/06/30/16:11:07.493289,18,1495524020,517601232,,0,0,55.3272635482,11.3883709482,72.6119998482,"(0.0, 0.0, 0.0, 0.0, 0.0, 0.0, 0.0, 0.0, 0.0)",0
2021/06/30/16:11:07.620740,19,1495524020,779416982,,0,0,55.3272637278,11.3883717278,73.3380003278,"(0.0, 0.0, 0.0, 0.0, 0.0, 0.0, 0.0, 0.0, 0.0)",0
2021/06/30/16:11:08.286202,20,1495524021,18998482,,0,0,55.3272628981,11.3883716981,74.0419997981,"(0.0, 0.0, 0.0, 0.0, 0.0, 0.0, 0.0, 0.0, 0.0)",0
2021/06/30/16:11:09.705853,21,1495524021,274227274,,0,0,55.3272609563,11.3883716563,75.2419983563,"(0.0, 0.0, 0.0, 0.0, 0.0, 0.0, 0.0, 0.0, 0.0)",0
2021/06/30/16:11:09.796843,22,1495524021,520070274,,0,0,55.3272627767,11.3883746767,75.7790002767,"(0.0, 0.0, 0.0, 0.0, 0.0, 0.0, 0.0, 0.0, 0.0)",0
2021/06/30/16:11:10.111847,23,1495524021,776020024,,0,0,55.3272630198,11.3883757198,76.2520007198,"(0.0, 0.0, 0.0, 0.0, 0.0, 0.0, 0.0, 0.0, 0.0)",0
2021/06/30/16:11:10.458549,24,1495524022,19955358,,0,0,55.3272638959,11.3883772959,76.6980018959,"(0.0, 0.0, 0.0, 0.0, 0.0, 0.0, 0.0, 0.0, 0.0)",0
2021/06/30/16:11:11.057006,25,1495524022,277572316,,0,0,55.3272626728,11.3883768728,77.3010007728,"(0.0, 0.0, 0.0, 0.0, 0.0, 0.0, 0.0, 0.0, 0.0)",0
2021/06/30/16:11:11.533446,26,1495524022,518074899,,0,0,55.3272623622,11.3883760622,77.4630001622,"(0.0, 0.0, 0.0, 0.0, 0.0, 0.0, 0.0, 0.0, 0.0)",0
2021/06/30/16:11:11.617531,27,1495524022,774211733,,0,0,55.3272625423,11.3883756423,77.5830002423,"(0.0, 0.0, 0.0, 0.0, 0.0, 0.0, 0.0, 0.0, 0.0)",0
2021/06/30/16:11:12.265145,28,1495524023,21869358,,0,0,55.3272637632,11.3883762632,77.5700011632,"(0.0, 0.0, 0.0, 0.0, 0.0, 0.0, 0.0, 0.0, 0.0)",0
2021/06/30/16:11:12.804304,29,1495524023,275209108,,0,0,55.3272639016,11.3883747016,77.4860004016,"(0.0, 0.0, 0.0, 0.0, 0.0, 0.0, 0.0, 0.0, 0.0)",0
2021/06/30/16:11:13.291768,30,1495524023,518310399,,0,0,55.3272644269,11.3883743269,77.4330004269,"(0.0, 0.0, 0.0, 0.0, 0.0, 0.0, 0.0, 0.0, 0.0)",0
2021/06/30/16:11:13.457993,31,1495524023,773773816,,0,0,55.3272642373,11.3883732373,77.3520000373,"(0.0, 0.0, 0.0, 0.0, 0.0, 0.0, 0.0, 0.0, 0.0)",0
2021/06/30/16:11:14.352205,32,1495524024,21266024,,0,0,55.3272659918,11.3883742918,77.3040016918,"(0.0, 0.0, 0.0, 0.0, 0.0, 0.0, 0.0, 0.0, 0.0)",0
2021/06/30/16:11:14.780465,33,1495524024,274487358,,0,0,55.3272657167,11.3883724167,77.3080007167,"(0.0, 0.0, 0.0, 0.0, 0.0, 0.0, 0.0, 0.0, 0.0)",0
2021/06/30/16:11:15.281290,34,1495524024,517503358,,0,0,55.327265533,11.388372033,77.342000833,"(0.0, 0.0, 0.0, 0.0, 0.0, 0.0, 0.0, 0.0, 0.0)",0
2021/06/30/16:11:15.781545,35,1495524024,773293525,,0,0,55.3272616821,11.3883682821,77.3369977821,"(0.0, 0.0, 0.0, 0.0, 0.0, 0.0, 0.0, 0.0, 0.0)",0
2021/06/30/16:11:16.128607,36,1495524025,21618441,,0,0,55.3272641855,11.3883707855,77.3240014855,"(0.0, 0.0, 0.0, 0.0, 0.0, 0.0, 0.0, 0.0, 0.0)",0
2021/06/30/16:11:16.547751,37,1495524025,275840066,,0,0,55.3272601273,11.3883673273,77.3350007273,"(0.0, 0.0, 0.0, 0.0, 0.0, 0.0, 0.0, 0.0, 0.0)",0
2021/06/30/16:11:17.055858,38,1495524025,519366941,,0,0,55.3272573328,11.3883657328,77.3360006328,"(0.0, 0.0, 0.0, 0.0, 0.0, 0.0, 0.0, 0.0, 0.0)",0
2021/06/30/16:11:17.527088,39,1495524025,777254025,,0,0,55.3272539744,11.3883641744,77.1950006744,"(0.0, 0.0, 0.0, 0.0, 0.0, 0.0, 0.0, 0.0, 0.0)",0
2021/06/30/16:11:17.798891,40,1495524026,24875483,,0,0,55.3272497912,11.3883620912,77.2270000912,"(0.0, 0.0, 0.0, 0.0, 0.0, 0.0, 0.0, 0.0, 0.0)",0
2021/06/30/16:11:18.537046,41,1495524026,274664233,,0,0,55.3272426706,11.3883602706,77.1680009706,"(0.0, 0.0, 0.0, 0.0, 0.0, 0.0, 0.0, 0.0, 0.0)",0
2021/06/30/16:11:18.889009,42,1495524026,521774400,,0,0,55.327238714,11.388358414,77.177000414,"(0.0, 0.0, 0.0, 0.0, 0.0, 0.0, 0.0, 0.0, 0.0)",0
2021/06/30/16:11:20.145036,43,1495524026,772850775,,0,0,55.3272360124,11.3883578124,77.0540006124,"(0.0, 0.0, 0.0, 0.0, 0.0, 0.0, 0.0, 0.0, 0.0)",0
2021/06/30/16:11:20.423307,44,1495524027,20849900,,0,0,55.3272298548,11.3883541548,77.0679973548,"(0.0, 0.0, 0.0, 0.0, 0.0, 0.0, 0.0, 0.0, 0.0)",0
2021/06/30/16:11:20.853778,45,1495524027,274814775,,0,0,55.3272284124,11.3883578124,77.0870002124,"(0.0, 0.0, 0.0, 0.0, 0.0, 0.0, 0.0, 0.0, 0.0)",0
2021/06/30/16:11:21.403768,46,1495524027,520795483,,0,0,55.3272235683,11.3883562683,77.1159979683,"(0.0, 0.0, 0.0, 0.0, 0.0, 0.0, 0.0, 0.0, 0.0)",0
2021/06/30/16:11:21.566947,47,1495524027,777062567,,0,0,55.3272244154,11.3883595154,77.1480004154,"(0.0, 0.0, 0.0, 0.0, 0.0, 0.0, 0.0, 0.0, 0.0)",0
2021/06/30/16:11:21.922330,48,1495524028,20360983,,0,0,55.3272221061,11.3883595061,77.1619994061,"(0.0, 0.0, 0.0, 0.0, 0.0, 0.0, 0.0, 0.0, 0.0)",0
2021/06/30/16:11:22.580125,49,1495524028,277722900,,0,0,55.3272215255,11.3883637255,77.3030016255,"(0.0, 0.0, 0.0, 0.0, 0.0, 0.0, 0.0, 0.0, 0.0)",0
2021/06/30/16:11:22.948822,50,1495524028,519913525,,0,0,55.3272190882,11.3883640882,77.3320003882,"(0.0, 0.0, 0.0, 0.0, 0.0, 0.0, 0.0, 0.0, 0.0)",0
2021/06/30/16:11:23.074445,51,1495524028,777741233,,0,0,55.3272178762,11.3883650762,77.3959996762,"(0.0, 0.0, 0.0, 0.0, 0.0, 0.0, 0.0, 0.0, 0.0)",0
2021/06/30/16:11:23.158396,52,1495524029,21552983,,0,0,55.3272171017,11.3883658017,77.3939991017,"(0.0, 0.0, 0.0, 0.0, 0.0, 0.0, 0.0, 0.0, 0.0)",0
2021/06/30/16:11:23.284383,53,1495524029,273197275,,0,0,55.3272177542,11.3883694542,77.4810005542,"(0.0, 0.0, 0.0, 0.0, 0.0, 0.0, 0.0, 0.0, 0.0)",0
2021/06/30/16:11:23.366538,54,1495524029,518545025,,0,0,55.327217244,11.388370444,77.453000144,"(0.0, 0.0, 0.0, 0.0, 0.0, 0.0, 0.0, 0.0, 0.0)",0
2021/06/30/16:11:23.492831,55,1495524029,777410525,,0,0,55.32721832,11.38837292,77.50700082,"(0.0, 0.0, 0.0, 0.0, 0.0, 0.0, 0.0, 0.0, 0.0)",0
2021/06/30/16:11:23.577106,56,1495524030,23870733,,0,0,55.3272179112,11.3883732112,77.5309998112,"(0.0, 0.0, 0.0, 0.0, 0.0, 0.0, 0.0, 0.0, 0.0)",0
2021/06/30/16:11:23.712111,57,1495524030,276460192,,0,0,55.3272186207,11.3883766207,77.6420007207,"(0.0, 0.0, 0.0, 0.0, 0.0, 0.0, 0.0, 0.0, 0.0)",0
2021/06/30/16:11:23.777504,58,1495524030,521407317,,0,0,55.3272174273,11.3883766273,77.7299995273,"(0.0, 0.0, 0.0, 0.0, 0.0, 0.0, 0.0, 0.0, 0.0)",0
2021/06/30/16:11:23.912101,59,1495524030,777153442,,0,0,55.3272174218,11.3883773218,77.6879988218,"(0.0, 0.0, 0.0, 0.0, 0.0, 0.0, 0.0, 0.0, 0.0)",0
2021/06/30/16:11:23.996098,60,1495524031,31638984,,0,0,55.3272184889,11.3883792889,77.7379993889,"(0.0, 0.0, 0.0, 0.0, 0.0, 0.0, 0.0, 0.0, 0.0)",0
2021/06/30/16:11:24.079888,61,1495524031,277052859,,0,0,55.3272214676,11.3883821676,77.7830010676,"(0.0, 0.0, 0.0, 0.0, 0.0, 0.0, 0.0, 0.0, 0.0)",0
2021/06/30/16:11:24.507281,62,1495524031,520611192,,0,0,55.3272212551,11.3883808551,77.6369995551,"(0.0, 0.0, 0.0, 0.0, 0.0, 0.0, 0.0, 0.0, 0.0)",0
2021/06/30/16:11:24.609546,63,1495524031,774704984,,0,0,55.3272236824,11.3883821824,77.6500005824,"(0.0, 0.0, 0.0, 0.0, 0.0, 0.0, 0.0, 0.0, 0.0)",0
2021/06/30/16:11:24.694108,64,1495524032,19251525,,0,0,55.3272234899,11.3883807899,77.6429991899,"(0.0, 0.0, 0.0, 0.0, 0.0, 0.0, 0.0, 0.0, 0.0)",0
2021/06/30/16:11:24.853535,65,1495524032,275268275,,0,0,55.3272258978,11.3883807978,77.5020001978,"(0.0, 0.0, 0.0, 0.0, 0.0, 0.0, 0.0, 0.0, 0.0)",0
2021/06/30/16:11:24.944628,66,1495524032,521773359,,0,0,55.3272249948,11.3883794948,77.4809990948,"(0.0, 0.0, 0.0, 0.0, 0.0, 0.0, 0.0, 0.0, 0.0)",0
2021/06/30/16:11:25.039197,67,1495524032,776425275,,0,0,55.3272252518,11.3883795518,77.4749991518,"(0.0, 0.0, 0.0, 0.0, 0.0, 0.0, 0.0, 0.0, 0.0)",0
2021/06/30/16:11:25.154763,68,1495524033,19620442,,0,0,55.3272273617,11.3883814617,77.4540011617,"(0.0, 0.0, 0.0, 0.0, 0.0, 0.0, 0.0, 0.0, 0.0)",0
2021/06/30/16:11:25.238261,69,1495524033,278605817,,0,0,55.3272259958,11.3883778958,77.5159994958,"(0.0, 0.0, 0.0, 0.0, 0.0, 0.0, 0.0, 0.0, 0.0)",0
2021/06/30/16:11:25.335649,70,1495524033,517713192,,0,0,55.3272275916,11.3883785916,77.4610011916,"(0.0, 0.0, 0.0, 0.0, 0.0, 0.0, 0.0, 0.0, 0.0)",0
2021/06/30/16:11:25.530643,71,1495524033,775819734,,0,0,55.3272253432,11.3883762432,77.5009993432,"(0.0, 0.0, 0.0, 0.0, 0.0, 0.0, 0.0, 0.0, 0.0)",0
2021/06/30/16:11:25.804478,72,1495524034,18514234,,0,0,55.3272252753,11.3883759753,77.5099997753,"(0.0, 0.0, 0.0, 0.0, 0.0, 0.0, 0.0, 0.0, 0.0)",0
2021/06/30/16:11:26.128856,73,1495524034,273285692,,0,0,55.3272227593,11.3883748593,77.4359987593,"(0.0, 0.0, 0.0, 0.0, 0.0, 0.0, 0.0, 0.0, 0.0)",0
2021/06/30/16:11:26.599453,74,1495524034,518409234,,0,0,55.3272223518,11.3883756518,77.4119991518,"(0.0, 0.0, 0.0, 0.0, 0.0, 0.0, 0.0, 0.0, 0.0)",0
2021/06/30/16:11:26.953718,75,1495524034,774233359,,0,0,55.3272221516,11.3883762516,77.3769997516,"(0.0, 0.0, 0.0, 0.0, 0.0, 0.0, 0.0, 0.0, 0.0)",0
2021/06/30/16:11:27.275673,76,1495524035,20215401,,0,0,55.327221381,11.388376581,77.314999681,"(0.0, 0.0, 0.0, 0.0, 0.0, 0.0, 0.0, 0.0, 0.0)",0
2021/06/30/16:11:27.383732,77,1495524035,274430151,,0,0,55.3272206712,11.3883790712,77.2070006712,"(0.0, 0.0, 0.0, 0.0, 0.0, 0.0, 0.0, 0.0, 0.0)",0
2021/06/30/16:11:27.927126,78,1495524035,522267276,,0,0,55.3272195031,11.3883792031,77.2039999031,"(0.0, 0.0, 0.0, 0.0, 0.0, 0.0, 0.0, 0.0, 0.0)",0
2021/06/30/16:11:28.049894,79,1495524035,778448901,,0,0,55.3272184253,11.3883795253,77.2189994253,"(0.0, 0.0, 0.0, 0.0, 0.0, 0.0, 0.0, 0.0, 0.0)",0
2021/06/30/16:11:28.656771,80,1495524036,18513776,,0,0,55.3272181372,11.3883808372,77.1529999372,"(0.0, 0.0, 0.0, 0.0, 0.0, 0.0, 0.0, 0.0, 0.0)",0
2021/06/30/16:11:29.119753,81,1495524036,273316609,,0,0,55.3272174082,11.3883821082,77.1009997082,"(0.0, 0.0, 0.0, 0.0, 0.0, 0.0, 0.0, 0.0, 0.0)",0
2021/06/30/16:11:29.486393,82,1495524036,526206609,,0,0,55.3272193162,11.3883845162,77.0730013162,"(0.0, 0.0, 0.0, 0.0, 0.0, 0.0, 0.0, 0.0, 0.0)",0
2021/06/30/16:11:30.193828,83,1495524036,775798359,,0,0,55.327218867,11.388384567,77.105000367,"(0.0, 0.0, 0.0, 0.0, 0.0, 0.0, 0.0, 0.0, 0.0)",0
2021/06/30/16:11:30.504625,84,1495524037,19686859,,0,0,55.3272192537,11.3883855537,77.1250006537,"(0.0, 0.0, 0.0, 0.0, 0.0, 0.0, 0.0, 0.0, 0.0)",0
2021/06/30/16:11:30.992468,85,1495524037,277298943,,0,0,55.3272186652,11.3883855652,77.2569997652,"(0.0, 0.0, 0.0, 0.0, 0.0, 0.0, 0.0, 0.0, 0.0)",0
2021/06/30/16:11:31.505262,86,1495524037,520294651,,0,0,55.3272194032,11.3883860032,77.2789999032,"(0.0, 0.0, 0.0, 0.0, 0.0, 0.0, 0.0, 0.0, 0.0)",0
2021/06/30/16:11:31.829738,87,1495524037,777020734,,0,0,55.3272205714,11.3883866714,77.3130001714,"(0.0, 0.0, 0.0, 0.0, 0.0, 0.0, 0.0, 0.0, 0.0)",0
2021/06/30/16:11:32.489619,88,1495524038,17880068,,0,0,55.3272215254,11.3883873254,77.3250004254,"(0.0, 0.0, 0.0, 0.0, 0.0, 0.0, 0.0, 0.0, 0.0)",0
2021/06/30/16:11:33.010038,89,1495524038,273982234,,0,0,55.3272230734,11.3883875734,77.4180007734,"(0.0, 0.0, 0.0, 0.0, 0.0, 0.0, 0.0, 0.0, 0.0)",0
2021/06/30/16:11:33.442071,90,1495524038,526559901,,0,0,55.3272226566,11.3883863566,77.4030000566,"(0.0, 0.0, 0.0, 0.0, 0.0, 0.0, 0.0, 0.0, 0.0)",0
2021/06/30/16:11:33.807884,91,1495524038,773517485,,0,0,55.3272216238,11.3883851238,77.4489993238,"(0.0, 0.0, 0.0, 0.0, 0.0, 0.0, 0.0, 0.0, 0.0)",0
2021/06/30/16:11:33.886259,92,1495524039,17646026,,0,0,55.3272230219,11.3883861219,77.4980010219,"(0.0, 0.0, 0.0, 0.0, 0.0, 0.0, 0.0, 0.0, 0.0)",0
2021/06/30/16:11:34.621242,93,1495524039,275190860,,0,0,55.3272214849,11.3883825849,77.5199995849,"(0.0, 0.0, 0.0, 0.0, 0.0, 0.0, 0.0, 0.0, 0.0)",0
2021/06/30/16:11:35.067924,94,1495524039,522040068,,0,0,55.3272232628,11.3883832628,77.5150015628,"(0.0, 0.0, 0.0, 0.0, 0.0, 0.0, 0.0, 0.0, 0.0)",0
2021/06/30/16:11:35.641055,95,1495524039,775638193,,0,0,55.3272227226,11.3883822226,77.6170013226,"(0.0, 0.0, 0.0, 0.0, 0.0, 0.0, 0.0, 0.0, 0.0)",0
2021/06/30/16:11:35.876761,96,1495524040,19463776,,0,0,55.3272214924,11.3883808924,77.6870003924,"(0.0, 0.0, 0.0, 0.0, 0.0, 0.0, 0.0, 0.0, 0.0)",0
2021/06/30/16:11:36.429916,97,1495524040,277808193,,0,0,55.3272203607,11.3883801607,77.6669996607,"(0.0, 0.0, 0.0, 0.0, 0.0, 0.0, 0.0, 0.0, 0.0)",0
2021/06/30/16:11:36.884642,98,1495524040,523967776,,0,0,55.3272197506,11.3883799506,77.7059995506,"(0.0, 0.0, 0.0, 0.0, 0.0, 0.0, 0.0, 0.0, 0.0)",0
2021/06/30/16:11:37.471526,99,1495524040,780739943,,0,0,55.3272197534,11.3883806534,77.7710002534,"(0.0, 0.0, 0.0, 0.0, 0.0, 0.0, 0.0, 0.0, 0.0)",0
2021/06/30/16:11:37.761514,100,1495524041,18898068,,0,0,55.3272177509,11.3883794509,77.7789987509,"(0.0, 0.0, 0.0, 0.0, 0.0, 0.0, 0.0, 0.0, 0.0)",0
2021/06/30/16:11:38.422265,101,1495524041,276166776,,0,0,55.3272174436,11.3883812436,77.8659995436,"(0.0, 0.0, 0.0, 0.0, 0.0, 0.0, 0.0, 0.0, 0.0)",0
2021/06/30/16:11:38.682416,102,1495524041,520439152,,0,0,55.3272178842,11.3883827842,77.8790003842,"(0.0, 0.0, 0.0, 0.0, 0.0, 0.0, 0.0, 0.0, 0.0)",0
2021/06/30/16:11:39.507882,103,1495524041,776613110,,0,0,55.3272170835,11.3883831835,77.8710001835,"(0.0, 0.0, 0.0, 0.0, 0.0, 0.0, 0.0, 0.0, 0.0)",0
2021/06/30/16:11:39.855765,104,1495524042,20186443,,0,0,55.327217022,11.388384322,77.875000522,"(0.0, 0.0, 0.0, 0.0, 0.0, 0.0, 0.0, 0.0, 0.0)",0
2021/06/30/16:11:40.342304,105,1495524042,275317277,,0,0,55.3272156124,11.3883850124,77.8239991124,"(0.0, 0.0, 0.0, 0.0, 0.0, 0.0, 0.0, 0.0, 0.0)",0
2021/06/30/16:11:40.507719,106,1495524042,518828777,,0,0,55.3272151045,11.3883856045,77.8319986045,"(0.0, 0.0, 0.0, 0.0, 0.0, 0.0, 0.0, 0.0, 0.0)",0
2021/06/30/16:11:40.583607,107,1495524042,777347610,,0,0,55.3272165811,11.3883879811,77.8080001811,"(0.0, 0.0, 0.0, 0.0, 0.0, 0.0, 0.0, 0.0, 0.0)",0
2021/06/30/16:11:40.713605,108,1495524043,20690610,,0,0,55.3272161706,11.3883881706,77.8449997706,"(0.0, 0.0, 0.0, 0.0, 0.0, 0.0, 0.0, 0.0, 0.0)",0
2021/06/30/16:11:40.807968,109,1495524043,274379860,,0,0,55.3272167181,11.3883893181,77.8199998181,"(0.0, 0.0, 0.0, 0.0, 0.0, 0.0, 0.0, 0.0, 0.0)",0
2021/06/30/16:11:40.928593,110,1495524043,519367193,,0,0,55.327216675,11.388389275,77.877999475,"(0.0, 0.0, 0.0, 0.0, 0.0, 0.0, 0.0, 0.0, 0.0)",0
2021/06/30/16:11:41.049587,111,1495524043,776807735,,0,0,55.3272188683,11.3883915683,77.9800015683,"(0.0, 0.0, 0.0, 0.0, 0.0, 0.0, 0.0, 0.0, 0.0)",0
2021/06/30/16:11:41.146106,112,1495524044,19726027,,0,0,55.3272169021,11.3883904021,78.1119997021,"(0.0, 0.0, 0.0, 0.0, 0.0, 0.0, 0.0, 0.0, 0.0)",0
2021/06/30/16:11:41.232297,113,1495524044,273720402,,0,0,55.3272169912,11.3883917912,78.7159999912,"(0.0, 0.0, 0.0, 0.0, 0.0, 0.0, 0.0, 0.0, 0.0)",0
2021/06/30/16:11:41.353239,114,1495524044,522293985,,0,0,55.3272167175,11.3883919175,79.1689999175,"(0.0, 0.0, 0.0, 0.0, 0.0, 0.0, 0.0, 0.0, 0.0)",0
2021/06/30/16:11:41.502102,115,1495524044,777523985,,0,0,55.3272160903,11.3883907903,79.6039990903,"(0.0, 0.0, 0.0, 0.0, 0.0, 0.0, 0.0, 0.0, 0.0)",0
2021/06/30/16:11:41.571494,116,1495524045,20142860,,0,0,55.3272169992,11.3883917992,79.9809998992,"(0.0, 0.0, 0.0, 0.0, 0.0, 0.0, 0.0, 0.0, 0.0)",0
2021/06/30/16:11:41.657774,117,1495524045,275143735,,0,0,55.3272170088,11.3883926088,80.8400002088,"(0.0, 0.0, 0.0, 0.0, 0.0, 0.0, 0.0, 0.0, 0.0)",0
2021/06/30/16:11:41.786369,118,1495524045,521550735,,0,0,55.3272179577,11.3883934577,81.3320009577,"(0.0, 0.0, 0.0, 0.0, 0.0, 0.0, 0.0, 0.0, 0.0)",0
2021/06/30/16:11:41.915499,119,1495524045,774173277,,0,0,55.3272165049,11.3883920049,81.8249994049,"(0.0, 0.0, 0.0, 0.0, 0.0, 0.0, 0.0, 0.0, 0.0)",0
2021/06/30/16:11:42.001400,120,1495524046,18571944,,0,0,55.3272158155,11.3883915155,82.2559989155,"(0.0, 0.0, 0.0, 0.0, 0.0, 0.0, 0.0, 0.0, 0.0)",0
2021/06/30/16:11:42.098145,121,1495524046,274986235,,0,0,55.3272163292,11.3883927292,83.1529998292,"(0.0, 0.0, 0.0, 0.0, 0.0, 0.0, 0.0, 0.0, 0.0)",0
2021/06/30/16:11:42.219754,122,1495524046,519378902,,0,0,55.3272142622,11.3883909622,83.5719982622,"(0.0, 0.0, 0.0, 0.0, 0.0, 0.0, 0.0, 0.0, 0.0)",0
2021/06/30/16:11:42.347688,123,1495524046,774095277,,0,0,55.327215437,11.388392637,84.079000137,"(0.0, 0.0, 0.0, 0.0, 0.0, 0.0, 0.0, 0.0, 0.0)",0
2021/06/30/16:11:42.477155,124,1495524047,20434110,,0,0,55.3272156039,11.3883929039,84.6100002039,"(0.0, 0.0, 0.0, 0.0, 0.0, 0.0, 0.0, 0.0, 0.0)",0
2021/06/30/16:11:43.118279,125,1495524047,276976152,,0,0,55.3272152525,11.3883918525,85.5229998525,"(0.0, 0.0, 0.0, 0.0, 0.0, 0.0, 0.0, 0.0, 0.0)",0
2021/06/30/16:11:43.368025,126,1495524047,526128777,,0,0,55.3272128225,11.3883892225,85.9369976225,"(0.0, 0.0, 0.0, 0.0, 0.0, 0.0, 0.0, 0.0, 0.0)",0
2021/06/30/16:11:44.020600,127,1495524047,777037736,,0,0,55.3272147471,11.3883913471,86.3419997471,"(0.0, 0.0, 0.0, 0.0, 0.0, 0.0, 0.0, 0.0, 0.0)",0
2021/06/30/16:11:44.629602,128,1495524048,22443902,,0,0,55.3272158494,11.3883924494,86.7310008494,"(0.0, 0.0, 0.0, 0.0, 0.0, 0.0, 0.0, 0.0, 0.0)",0
2021/06/30/16:11:45.208422,129,1495524048,275298736,,0,0,55.327214206,11.388391206,87.536999606,"(0.0, 0.0, 0.0, 0.0, 0.0, 0.0, 0.0, 0.0, 0.0)",0
2021/06/30/16:11:45.960460,130,1495524048,518591402,,0,0,55.3272153087,11.3883926087,87.9440007087,"(0.0, 0.0, 0.0, 0.0, 0.0, 0.0, 0.0, 0.0, 0.0)",0
2021/06/30/16:11:46.637539,131,1495524048,773451111,,0,0,55.3272149862,11.3883925862,88.3420004862,"(0.0, 0.0, 0.0, 0.0, 0.0, 0.0, 0.0, 0.0, 0.0)",0
2021/06/30/16:11:47.093191,132,1495524049,20127069,,0,0,55.3272139227,11.3883916227,88.6979994227,"(0.0, 0.0, 0.0, 0.0, 0.0, 0.0, 0.0, 0.0, 0.0)",0
2021/06/30/16:11:47.720548,133,1495524049,273373902,,0,0,55.3272141505,11.3883925505,89.3579999505,"(0.0, 0.0, 0.0, 0.0, 0.0, 0.0, 0.0, 0.0, 0.0)",0
2021/06/30/16:11:48.027283,134,1495524049,519260611,,0,0,55.3272162075,11.3883946075,89.7360019075,"(0.0, 0.0, 0.0, 0.0, 0.0, 0.0, 0.0, 0.0, 0.0)",0
2021/06/30/16:11:48.678447,135,1495524049,777756402,,0,0,55.3272126513,11.3883910513,90.1019982513,"(0.0, 0.0, 0.0, 0.0, 0.0, 0.0, 0.0, 0.0, 0.0)",0
2021/06/30/16:11:49.977772,136,1495524050,20178278,,0,0,55.3272125479,11.3883907479,90.4229979479,"(0.0, 0.0, 0.0, 0.0, 0.0, 0.0, 0.0, 0.0, 0.0)",0
2021/06/30/16:11:50.662138,137,1495524050,274934278,,0,0,55.3272136953,11.3883920953,91.0259991953,"(0.0, 0.0, 0.0, 0.0, 0.0, 0.0, 0.0, 0.0, 0.0)",0
2021/06/30/16:11:50.997309,138,1495524050,531337986,,0,0,55.3272144557,11.3883931557,91.4520001557,"(0.0, 0.0, 0.0, 0.0, 0.0, 0.0, 0.0, 0.0, 0.0)",0
2021/06/30/16:11:51.419788,139,1495524050,778266778,,0,0,55.3272152881,11.3883943881,91.8030010881,"(0.0, 0.0, 0.0, 0.0, 0.0, 0.0, 0.0, 0.0, 0.0)",0
2021/06/30/16:11:51.932772,140,1495524051,20650819,,0,0,55.3272130311,11.3883926311,92.1929989311,"(0.0, 0.0, 0.0, 0.0, 0.0, 0.0, 0.0, 0.0, 0.0)",0
2021/06/30/16:11:52.082212,141,1495524051,274947486,,0,0,55.3272139407,11.3883942407,92.9740001407,"(0.0, 0.0, 0.0, 0.0, 0.0, 0.0, 0.0, 0.0, 0.0)",0
2021/06/30/16:11:52.169407,142,1495524051,524124486,,0,0,55.327214941,11.388395241,93.336001141,"(0.0, 0.0, 0.0, 0.0, 0.0, 0.0, 0.0, 0.0, 0.0)",0
2021/06/30/16:11:52.758316,143,1495524051,777391069,,0,0,55.3272143674,11.3883950674,93.7450005674,"(0.0, 0.0, 0.0, 0.0, 0.0, 0.0, 0.0, 0.0, 0.0)",0
2021/06/30/16:11:53.197493,144,1495524052,19226736,,0,0,55.3272142217,11.3883947217,94.0379999217,"(0.0, 0.0, 0.0, 0.0, 0.0, 0.0, 0.0, 0.0, 0.0)",0
2021/06/30/16:11:53.488793,145,1495524052,276500653,,0,0,55.3272132669,11.3883927669,94.8609988669,"(0.0, 0.0, 0.0, 0.0, 0.0, 0.0, 0.0, 0.0, 0.0)",0
2021/06/30/16:11:54.023306,146,1495524052,518891361,,0,0,55.3272138578,11.3883931578,95.3009995578,"(0.0, 0.0, 0.0, 0.0, 0.0, 0.0, 0.0, 0.0, 0.0)",0
2021/06/30/16:11:54.531373,147,1495524052,777429403,,0,0,55.3272119719,11.3883915719,95.6709976719,"(0.0, 0.0, 0.0, 0.0, 0.0, 0.0, 0.0, 0.0, 0.0)",0
2021/06/30/16:11:54.854039,148,1495524053,22559445,,0,0,55.3272169611,11.3883967611,96.0530025611,"(0.0, 0.0, 0.0, 0.0, 0.0, 0.0, 0.0, 0.0, 0.0)",0
2021/06/30/16:11:55.293459,149,1495524053,274358695,,0,0,55.3272108935,11.3883912935,96.8299972935,"(0.0, 0.0, 0.0, 0.0, 0.0, 0.0, 0.0, 0.0, 0.0)",0
2021/06/30/16:11:55.848044,150,1495524053,520480111,,0,0,55.3272125953,11.3883935953,97.1189992953,"(0.0, 0.0, 0.0, 0.0, 0.0, 0.0, 0.0, 0.0, 0.0)",0
2021/06/30/16:11:56.427324,151,1495524053,777536028,,0,0,55.3272132425,11.3883945425,97.4760001425,"(0.0, 0.0, 0.0, 0.0, 0.0, 0.0, 0.0, 0.0, 0.0)",0
2021/06/30/16:11:56.898845,152,1495524054,18201611,,0,0,55.327214656,11.388396156,97.817001556,"(0.0, 0.0, 0.0, 0.0, 0.0, 0.0, 0.0, 0.0, 0.0)",0
2021/06/30/16:11:57.442857,153,1495524054,276479070,,0,0,55.3272122416,11.3883934416,98.3689988416,"(0.0, 0.0, 0.0, 0.0, 0.0, 0.0, 0.0, 0.0, 0.0)",0
2021/06/30/16:11:57.719992,154,1495524054,518566278,,0,0,55.3272142958,11.3883950958,98.5880006958,"(0.0, 0.0, 0.0, 0.0, 0.0, 0.0, 0.0, 0.0, 0.0)",0
2021/06/30/16:11:58.346728,155,1495524054,773257320,,0,0,55.3272153055,11.3883955055,98.9330017055,"(0.0, 0.0, 0.0, 0.0, 0.0, 0.0, 0.0, 0.0, 0.0)",0
2021/06/30/16:11:58.441569,156,1495524055,20543611,,0,0,55.3272138823,11.3883935823,99.1260004823,"(0.0, 0.0, 0.0, 0.0, 0.0, 0.0, 0.0, 0.0, 0.0)",0
2021/06/30/16:11:58.611805,157,1495524055,274071653,,0,0,55.3272129572,11.3883911572,99.6779989572,"(0.0, 0.0, 0.0, 0.0, 0.0, 0.0, 0.0, 0.0, 0.0)",0
2021/06/30/16:11:59.009859,158,1495524055,526426487,,0,0,55.3272132912,11.3883915912,99.9199994912,"(0.0, 0.0, 0.0, 0.0, 0.0, 0.0, 0.0, 0.0, 0.0)",0
2021/06/30/16:11:59.746825,159,1495524055,776466820,,0,0,55.3272130605,11.3883917605,100.246999661,"(0.0, 0.0, 0.0, 0.0, 0.0, 0.0, 0.0, 0.0, 0.0)",0
2021/06/30/16:12:00.103423,160,1495524056,21852362,,0,0,55.3272136019,11.3883924019,100.490000202,"(0.0, 0.0, 0.0, 0.0, 0.0, 0.0, 0.0, 0.0, 0.0)",0
2021/06/30/16:12:00.272762,161,1495524056,273996820,,0,0,55.3272135285,11.3883920285,100.731999529,"(0.0, 0.0, 0.0, 0.0, 0.0, 0.0, 0.0, 0.0, 0.0)",0
2021/06/30/16:12:00.368082,162,1495524056,520002820,,0,0,55.3272146693,11.3883930693,100.718000269,"(0.0, 0.0, 0.0, 0.0, 0.0, 0.0, 0.0, 0.0, 0.0)",0
2021/06/30/16:12:00.488581,163,1495524056,777357903,,0,0,55.3272141211,11.3883929211,100.686999621,"(0.0, 0.0, 0.0, 0.0, 0.0, 0.0, 0.0, 0.0, 0.0)",0
2021/06/30/16:12:00.585581,164,1495524057,20930778,,0,0,55.3272153973,11.3883949973,100.641000797,"(0.0, 0.0, 0.0, 0.0, 0.0, 0.0, 0.0, 0.0, 0.0)",0
2021/06/30/16:12:00.670820,165,1495524057,274631237,,0,0,55.3272159734,11.3883958734,100.463000973,"(0.0, 0.0, 0.0, 0.0, 0.0, 0.0, 0.0, 0.0, 0.0)",0
2021/06/30/16:12:00.794448,166,1495524057,522571320,,0,0,55.3272159146,11.3883964146,100.403000715,"(0.0, 0.0, 0.0, 0.0, 0.0, 0.0, 0.0, 0.0, 0.0)",0
2021/06/30/16:12:00.890634,167,1495524057,776463445,,0,0,55.3272164205,11.3883976205,100.368001021,"(0.0, 0.0, 0.0, 0.0, 0.0, 0.0, 0.0, 0.0, 0.0)",0
2021/06/30/16:12:01.034767,168,1495524058,22309153,,0,0,55.3272157841,11.3883981841,100.371000284,"(0.0, 0.0, 0.0, 0.0, 0.0, 0.0, 0.0, 0.0, 0.0)",0
2021/06/30/16:12:01.870974,169,1495524058,274178695,,0,0,55.3272134335,11.3884004335,100.383998534,"(0.0, 0.0, 0.0, 0.0, 0.0, 0.0, 0.0, 0.0, 0.0)",0
2021/06/30/16:12:02.535976,170,1495524058,526380654,,0,0,55.3272140449,11.3884055449,100.387000245,"(0.0, 0.0, 0.0, 0.0, 0.0, 0.0, 0.0, 0.0, 0.0)",0
2021/06/30/16:12:03.489761,171,1495524058,777405737,,0,0,55.3272129692,11.3884101692,100.405000669,"(0.0, 0.0, 0.0, 0.0, 0.0, 0.0, 0.0, 0.0, 0.0)",0
2021/06/30/16:12:03.903264,172,1495524059,18980070,,0,0,55.3272107149,11.3884153149,100.409000615,"(0.0, 0.0, 0.0, 0.0, 0.0, 0.0, 0.0, 0.0, 0.0)",0
2021/06/30/16:12:04.417127,173,1495524059,277796654,,0,0,55.3272037104,11.3884272104,100.47599941,"(0.0, 0.0, 0.0, 0.0, 0.0, 0.0, 0.0, 0.0, 0.0)",0
2021/06/30/16:12:04.813360,174,1495524059,521001404,,0,0,55.3272013823,11.3884348823,100.499000082,"(0.0, 0.0, 0.0, 0.0, 0.0, 0.0, 0.0, 0.0, 0.0)",0
2021/06/30/16:12:05.370373,175,1495524059,782356654,,0,0,55.327199202,11.388442202,100.466000702,"(0.0, 0.0, 0.0, 0.0, 0.0, 0.0, 0.0, 0.0, 0.0)",0
2021/06/30/16:12:05.709706,176,1495524060,19598820,,0,0,55.327195844,11.388448744,100.463000144,"(0.0, 0.0, 0.0, 0.0, 0.0, 0.0, 0.0, 0.0, 0.0)",0
2021/06/30/16:12:06.114394,177,1495524060,275581695,,0,0,55.3271925937,11.3884633937,100.467001294,"(0.0, 0.0, 0.0, 0.0, 0.0, 0.0, 0.0, 0.0, 0.0)",0
2021/06/30/16:12:06.389667,178,1495524060,521911820,,0,0,55.3271890661,11.3884682661,100.470999366,"(0.0, 0.0, 0.0, 0.0, 0.0, 0.0, 0.0, 0.0, 0.0)",0
2021/06/30/16:12:07.630407,179,1495524060,775539279,,0,0,55.3271889189,11.3884752189,100.455000419,"(0.0, 0.0, 0.0, 0.0, 0.0, 0.0, 0.0, 0.0, 0.0)",0
2021/06/30/16:12:07.720546,180,1495524061,18600070,,0,0,55.3271886889,11.3884809889,100.476000889,"(0.0, 0.0, 0.0, 0.0, 0.0, 0.0, 0.0, 0.0, 0.0)",0
2021/06/30/16:12:07.806664,181,1495524061,275239237,,0,0,55.3271861985,11.3884892985,100.499999398,"(0.0, 0.0, 0.0, 0.0, 0.0, 0.0, 0.0, 0.0, 0.0)",0
2021/06/30/16:12:08.139842,182,1495524061,520407987,,0,0,55.3271846915,11.3884927915,100.480998391,"(0.0, 0.0, 0.0, 0.0, 0.0, 0.0, 0.0, 0.0, 0.0)",0
2021/06/30/16:12:08.646313,183,1495524061,776477904,,0,0,55.327187143,11.388499243,100.509001143,"(0.0, 0.0, 0.0, 0.0, 0.0, 0.0, 0.0, 0.0, 0.0)",0
2021/06/30/16:12:08.797489,184,1495524062,22484362,,0,0,55.327185386,11.388500786,100.535999586,"(0.0, 0.0, 0.0, 0.0, 0.0, 0.0, 0.0, 0.0, 0.0)",0
2021/06/30/16:12:09.172392,185,1495524062,273877112,,0,0,55.3271847294,11.3885064294,100.618999929,"(0.0, 0.0, 0.0, 0.0, 0.0, 0.0, 0.0, 0.0, 0.0)",0
2021/06/30/16:12:09.431235,186,1495524062,521300154,,0,0,55.3271847227,11.3885086227,100.667000223,"(0.0, 0.0, 0.0, 0.0, 0.0, 0.0, 0.0, 0.0, 0.0)",0
2021/06/30/16:12:09.984203,187,1495524062,775770779,,0,0,55.3271834209,11.3885093209,100.678999221,"(0.0, 0.0, 0.0, 0.0, 0.0, 0.0, 0.0, 0.0, 0.0)",0
2021/06/30/16:12:10.203051,188,1495524063,19546654,,0,0,55.3271833346,11.3885110346,100.731999535,"(0.0, 0.0, 0.0, 0.0, 0.0, 0.0, 0.0, 0.0, 0.0)",0
2021/06/30/16:12:10.627461,189,1495524063,273413696,,0,0,55.3271841751,11.3885128751,100.802000375,"(0.0, 0.0, 0.0, 0.0, 0.0, 0.0, 0.0, 0.0, 0.0)",0
2021/06/30/16:12:10.857331,190,1495524063,519937987,,0,0,55.3271848402,11.3885148402,100.78100064,"(0.0, 0.0, 0.0, 0.0, 0.0, 0.0, 0.0, 0.0, 0.0)",0
2021/06/30/16:12:11.351172,191,1495524063,776217154,,0,0,55.3271847281,11.3885147281,100.767000228,"(0.0, 0.0, 0.0, 0.0, 0.0, 0.0, 0.0, 0.0, 0.0)",0
2021/06/30/16:12:11.706415,192,1495524064,19575571,,0,0,55.3271852578,11.3885150578,100.743000758,"(0.0, 0.0, 0.0, 0.0, 0.0, 0.0, 0.0, 0.0, 0.0)",0
2021/06/30/16:12:12.196947,193,1495524064,274949863,,0,0,55.327185103,11.388512103,100.808999703,"(0.0, 0.0, 0.0, 0.0, 0.0, 0.0, 0.0, 0.0, 0.0)",0
2021/06/30/16:12:12.533850,194,1495524064,520691446,,0,0,55.3271857547,11.3885104547,100.801999955,"(0.0, 0.0, 0.0, 0.0, 0.0, 0.0, 0.0, 0.0, 0.0)",0
2021/06/30/16:12:13.216151,195,1495524064,777132321,,0,0,55.32718786,11.38850936,100.91900166,"(0.0, 0.0, 0.0, 0.0, 0.0, 0.0, 0.0, 0.0, 0.0)",0
2021/06/30/16:12:13.541835,196,1495524065,22561946,,0,0,55.3271885946,11.3885055946,101.029001495,"(0.0, 0.0, 0.0, 0.0, 0.0, 0.0, 0.0, 0.0, 0.0)",0
2021/06/30/16:12:13.995712,197,1495524065,279736529,,0,0,55.3271887781,11.3884922781,101.267999378,"(0.0, 0.0, 0.0, 0.0, 0.0, 0.0, 0.0, 0.0, 0.0)",0
2021/06/30/16:12:14.356346,198,1495524065,519641446,,0,0,55.3271906641,11.3884858641,101.357999764,"(0.0, 0.0, 0.0, 0.0, 0.0, 0.0, 0.0, 0.0, 0.0)",0
2021/06/30/16:12:15.310723,199,1495524065,777487196,,0,0,55.3271939937,11.3884801937,101.433001694,"(0.0, 0.0, 0.0, 0.0, 0.0, 0.0, 0.0, 0.0, 0.0)",0
2021/06/30/16:12:15.790964,200,1495524066,19104154,,0,0,55.3271946402,11.3884713402,101.56200094,"(0.0, 0.0, 0.0, 0.0, 0.0, 0.0, 0.0, 0.0, 0.0)",0
2021/06/30/16:12:16.644942,201,1495524066,276364154,,0,0,55.3271960378,11.3884539378,101.737999738,"(0.0, 0.0, 0.0, 0.0, 0.0, 0.0, 0.0, 0.0, 0.0)",0
2021/06/30/16:12:17.536972,202,1495524066,517983321,,0,0,55.3271990995,11.3884480995,101.7650017,"(0.0, 0.0, 0.0, 0.0, 0.0, 0.0, 0.0, 0.0, 0.0)",0
